# LAS format log file from PETREL
# Project units are specified as depth units
#==================================================================
~Version information
VERS.   2.0:
WRAP.   NO:
#==================================================================
~Well
STRT .m      1467.4883000 :
STOP .m      2627.9883000 :
STEP .m     0.50000000 :
NULL .        -999.250000 :
COMP.           : COMPANY
WELL.  B2   : WELL
FLD.            : FIELD
LOC.            : LOCATION
SRVC.           : SERVICE COMPANY
DATE.  2024-10-09 18:19:32   : Log Export Date {yyyy-MM-dd HH:mm:ss}
PROV.           : PROVINCE
UWI.      : UNIQUE WELL ID
API.            : API NUMBER
#==================================================================
~Curve
DEPT .m                   : DEPTH
Gamma .gAPI               : Gamma
Porosity .m3/m3           : Porosity
Resistivity .ohm.m        : Resistivity
LITH ._                   : LITH
~Parameter
#==================================================================
~Ascii
# ...
 1967.98830   65.71133    0.00254    2.52667    3.00000
 1968.48830   62.57394    0.00259    4.46202    3.00000
 1968.98830   59.30468    0.00249    7.77183    3.00000
 1969.48830   72.90091    0.00226    4.40152    3.00000
 1969.98830   86.90212    0.00210    1.28395    2.00000
 1970.48830   75.54739    0.00202    0.76235    2.00000
 1970.98830   63.58377    0.00205    0.33307    2.00000
 1971.48830   68.13092    0.00219    0.55742    2.00000
 1971.98830   73.07455    0.00223    0.90142    3.00000
 1972.48830   80.54378    0.00216    0.55022    2.00000
 1972.98830   88.07365    0.00215    0.24291    2.00000
 1973.48830   83.00902    0.00220    1.14046    2.00000
 1973.98830   77.64195    0.00218    2.84202    2.00000
 1974.48830   85.72688    0.00211    1.14170    2.00000
 1974.98830   94.13481    0.00211    0.12283    2.00000
 1975.48830   84.78572    0.00220    0.27112    2.00000
 1975.98830   75.01022    0.00221    0.52553    3.00000
 1976.48830   83.29395    0.00213    0.36888    2.00000
 1976.98830   92.01134    0.00214    0.20138    2.00000
 1977.48830   81.07875    0.00224    8.26534    3.00000
 1977.98830   69.67431    0.00226   28.44125    3.00000
 1978.48830   76.71818    0.00219   12.78753    2.00000
 1978.98830   84.20504    0.00217    2.39993    2.00000
 1979.48830   82.45149    0.00219    1.55331    2.00000
 1979.98830   80.47605    0.00219    0.99870    2.00000
 1980.48830   82.36546    0.00217    0.79742    2.00000
 1980.98830   84.34768    0.00215    0.61731    2.00000
 1981.48830   85.08887    0.00215    0.91811    2.00000
 1981.98830   85.80025    0.00211    1.33794    2.00000
 1982.48830   93.00996    0.00204    0.56935    2.00000
 1982.98830  100.37570    0.00206    0.08556    2.00000
 1983.48830   90.11710    0.00215    0.38913    2.00000
 1983.98830   79.43528    0.00222    0.91363    3.00000
 1984.48830   75.87890    0.00225    0.95516    3.00000
 1984.98830   72.49361    0.00224    1.02795    3.00000
 1985.48830   79.05351    0.00218    0.43291    2.00000
 1985.98830   85.85222    0.00216    0.06846    2.00000
 1986.48830   81.91595    0.00220    0.21746    3.00000
 1986.98830   77.72192    0.00222    0.46944    3.00000
 1987.48830   78.61642    0.00221    0.58022    3.00000
 1987.98830   79.63310    0.00222    0.68359    3.00000
 1988.48830   76.11287    0.00225    0.73737    3.00000
 1988.98830   72.48369    0.00225    0.82060    3.00000
 1989.48830   77.22066    0.00220    0.55339    3.00000
 1989.98830   82.15853    0.00216    0.32086    2.00000
 1990.48830   85.16839    0.00214    0.62026    2.00000
 1990.98830   88.13195    0.00213    1.02414    2.00000
 1991.48830   85.86447    0.00216    0.86613    2.00000
 1991.98830   83.47137    0.00217    0.71857    2.00000
 1992.48830   82.94164    0.00217    0.28822    2.00000
 1992.98830   82.45665    0.00218    0.04918    2.00000
 1993.48830   81.55904    0.00219    0.08870    2.00000
 1993.98830   80.65154    0.00220    0.14606    2.00000
 1994.48830   79.35967    0.00221    0.18752    3.00000
 1994.98830   78.05858    0.00219    0.24141    2.00000
 1995.48830   84.52290    0.00213    0.36175    2.00000
 1995.98830   91.17371    0.00212    0.48793    2.00000
 1996.48830   85.48399    0.00218    4.16456    2.00000
 1996.98830   79.49794    0.00221   11.34612    3.00000
 1997.48830   77.43504    0.00223    3.92330    3.00000
 1997.98830   75.46633    0.00218    0.32972    2.00000
 1998.48830   88.65192    0.00205    0.42186    2.00000
 1998.98830  102.20141    0.00203    0.53732    2.00000
 1999.48830   93.31268    0.00212   14.30005    2.00000
 1999.98830   83.88514    0.00219   44.61908    2.00000
 2000.48830   77.63751    0.00225   13.53003    3.00000
 2000.98830   71.46625    0.00227    0.51851    3.00000
 2001.48830   72.67500    0.00226    1.64804    3.00000
 2001.98830   74.06097    0.00224    3.80879    3.00000
 2002.48830   78.19328    0.00220    2.56262    2.00000
 2002.98830   82.39153    0.00217    1.44916    2.00000
 2003.48830   84.30891    0.00215    0.51724    2.00000
 2003.98830   86.17150    0.00216    0.04892    2.00000
 2004.48830   82.83606    0.00219    0.08691    2.00000
 2004.98830   79.37579    0.00222    0.14459    3.00000
 2005.48830   76.94776    0.00224    0.43043    3.00000
 2005.98830   74.54452    0.00223    0.89088    3.00000
 2006.48830   78.39965    0.00219    0.48618    2.00000
 2006.98830   82.40508    0.00215    0.18445    2.00000
 2007.48830   87.89748    0.00210    0.17138    2.00000
 2007.98830   93.42558    0.00212    0.15101    2.00000
 2008.48830   83.08407    0.00222    1.25361    3.00000
 2008.98830   72.36148    0.00221    3.60037    3.00000
 2009.48830   85.20485    0.00209    1.86115    2.00000
 2009.98830   98.61411    0.00209    0.45241    2.00000
 2010.48830   85.48560    0.00221    0.71600    3.00000
 2010.98830   71.71983    0.00224    1.13544    3.00000
 2011.48830   78.66729    0.00218    0.62314    2.00000
 2011.98830   86.11214    0.00216    0.21886    2.00000
 2012.48830   82.51747    0.00219    0.25108    2.00000
 2012.98830   78.65771    0.00220    0.30116    3.00000
 2013.48830   80.59499    0.00218    0.36326    2.00000
 2013.98830   82.67147    0.00218    0.42589    2.00000
 2014.48830   81.37176    0.00219    0.63766    2.00000
 2014.98830   79.99098    0.00229    0.82478    3.00000
 2015.48830   69.82566    0.00246    0.79995    3.00000
 2015.98830   59.44939    0.00260    0.80442    3.00000
 2016.48830   62.56487    0.00268    0.58446    3.00000
 2016.98830   66.00432    0.00264    0.45071    3.00000
 2017.48830   67.51942    0.00247    6.40207    3.00000
 2017.98830   68.98830    0.00236   21.23252    3.00000
 2018.48830   69.39385    0.00232    8.49299    3.00000
 2018.98830   69.77386    0.00237    1.01555    3.00000
 2019.48830   65.57498    0.00253    0.74199    3.00000
 2019.98830   61.26614    0.00252    0.68280    3.00000
 2020.48830   68.11253    0.00234    3.01680    3.00000
 2020.98830   75.22680    0.00225    7.31659    3.00000
 2021.48830   73.08211    0.00227    2.91682    3.00000
 2021.98830   70.71507    0.00228    0.47629    3.00000
 2022.48830   71.90473    0.00227    1.10207    3.00000
 2022.98830   73.17979    0.00230    2.01118    3.00000
 2023.48830   65.38022    0.00237    3.48895    3.00000
 2023.98830   57.36273    0.00237    5.63553    3.00000
 2024.48830   66.49153    0.00228    2.99593    3.00000
 2024.98830   76.03207    0.00225    0.94934    3.00000
 2025.48830   73.61450    0.00227    1.46969    3.00000
 2025.98830   70.90978    0.00228    2.19760    3.00000
 2026.48830   72.49572    0.00226    1.36366    3.00000
 2026.98830   74.18468    0.00225    0.69291    3.00000
 2027.48830   75.03929    0.00224    0.77666    3.00000
 2027.98830   75.87386    0.00224    0.87603    3.00000
 2028.48830   74.89849    0.00225    0.46097    3.00000
 2028.98830   73.87966    0.00227    0.17306    3.00000
 2029.48830   71.93037    0.00228    1.24300    3.00000
 2029.98830   69.95875    0.00240    3.02408    3.00000
 2030.48830   64.76199    0.00263    2.88620    3.00000
 2030.98830   59.48779    0.00263    3.27660    3.00000
 2031.48830   65.62830    0.00240    3.56463    3.00000
 2031.98830   72.04291    0.00237    3.19924    3.00000
 2032.48830   69.72449    0.00256    2.68352    3.00000
 2032.98830   67.19637    0.00255    2.68001    3.00000
 2033.48830   71.57163    0.00234    2.13262    3.00000
 2033.98830   76.11266    0.00223    1.38699    3.00000
 2034.48830   76.85506    0.00223    0.72598    3.00000
 2034.98830   77.50623    0.00222    0.27493    3.00000
 2035.48830   78.59257    0.00221    1.26135    3.00000
 2035.98830   79.68936    0.00230    2.76238    3.00000
 2036.48830   72.95258    0.00251    1.34228    3.00000
 2036.98830   66.02769    0.00249    0.62113    3.00000
 2037.48830   77.45043    0.00224    0.47334    3.00000
 2037.98830   89.31376    0.00205    0.30145    2.00000
 2038.48830  103.29293    0.00191    0.17208    2.00000
 2038.98830  117.32290    0.00183    0.06378    2.00000
