# LAS format log file from PETREL
# Project units are specified as depth units
#==================================================================
~Version information
VERS.   2.0:
WRAP.   NO:
#==================================================================
~Well
STRT .m      1467.4883000 :
STOP .m      2627.9883000 :
STEP .m     0.50000000 :
NULL .        -999.250000 :
COMP.           : COMPANY
WELL.  B2   : WELL
FLD.            : FIELD
LOC.            : LOCATION
SRVC.           : SERVICE COMPANY
DATE.  2024-10-09 18:19:32   : Log Export Date {yyyy-MM-dd HH:mm:ss}
PROV.           : PROVINCE
UWI.      : UNIQUE WELL ID
API.            : API NUMBER
#==================================================================
~Curve
DEPT .m                   : DEPTH
Gamma .gAPI               : Gamma
Porosity .m3/m3           : Porosity
Resistivity .ohm.m        : Resistivity
LITH ._                   : LITH
~Parameter
#==================================================================
~Ascii
# ...
 2253.98830   75.49802    0.00123    4.60985    1.00000
 2254.48830   77.83945    0.00121    3.01689    1.00000
 2254.98830   80.16477    0.00120    1.73995    1.00000
 2255.48830   79.15723    0.00121    1.63282    1.00000
 2255.98830   78.06965    0.00130    1.36193    1.00000
 2256.48830   73.09518    0.00146    7.54115    1.00000
 2256.98830   68.02738    0.00146   20.45941    1.00000
 2257.48830   74.57379    0.00128   20.72301    1.00000
 2257.98830   81.39909    0.00117   17.76402    1.00000
 2258.48830   84.88738    0.00114    6.95499    1.00000
 2258.98830   88.29554    0.00110    0.86693    1.00000
 2259.48830   92.05421    0.00107    0.82190    1.00000
 2259.98830   95.82131    0.00105    0.82837    1.00000
 2260.48830   96.30713    0.00104    0.72335    1.00000
 2260.98830   96.71415    0.00106    0.59602    1.00000
 2261.48830   92.72503    0.00110    0.96884    1.00000
 2261.98830   88.63034    0.00116    1.34873    1.00000
 2262.48830   79.59514    0.00125    1.72832    1.00000
 2262.98830   70.44131    0.00124    2.44282    1.00000
 2263.48830   80.72660    0.00114    1.42771    1.00000
 2263.98830   91.47868    0.00114    0.43804    1.00000
 2264.48830   81.69603    0.00123    3.10844    1.00000
 2264.98830   71.42028    0.00127    8.13145    1.00000
 2265.48830   72.68967    0.00126    4.30068    1.00000
 2265.98830   74.23628    0.00124    1.52416    1.00000
 2266.48830   76.42210    0.00122    3.92732    1.00000
 2266.98830   78.62328    0.00116    8.40203    1.00000
 2267.48830   89.03806    0.00106    4.94100    1.00000
 2267.98830   99.65009    0.00105    1.49915    1.00000
 2268.48830   92.14883    0.00112    1.58604    1.00000
 2268.98830   84.21263    0.00119    1.74261    1.00000
 2269.48830   77.88045    0.00125    0.94260    1.00000
 2269.98830   71.58678    0.00125    0.46019    1.00000
 2270.48830   77.14211    0.00120    3.10495    1.00000
 2270.98830   82.98196    0.00118    8.38571    1.00000
 2271.48830   81.22662    0.00120    4.10075    1.00000
 2271.98830   79.28888    0.00117    1.38786    1.00000
 2272.48830   85.89001    0.00111    0.81047    1.00000
 2272.98830   92.69617    0.00112    0.31273    1.00000
 2273.48830   84.32790    0.00120    1.79800    1.00000
 2273.98830   75.59525    0.00123    4.51217    1.00000
 2274.48830   77.05013    0.00122    2.86219    1.00000
 2274.98830   78.74965    0.00119    1.51476    1.00000
 2275.48830   82.97812    0.00115    1.38154    1.00000
 2275.98830   87.26731    0.00112    1.24835    1.00000
 2276.48830   89.81931    0.00110    1.05070    1.00000
 2276.98830   92.32961    0.00109    0.82308    1.00000
 2277.48830   90.19842    0.00111    2.03371    1.00000
 2277.98830   87.95576    0.00115    3.63756    1.00000
 2278.48830   82.07968    0.00121    6.87039    1.00000
 2278.98830   76.11634    0.00124   11.21072    1.00000
 2279.48830   66.02050    0.00124   11.53058    1.00000
 2279.98830   55.82543    0.00120   12.56034    1.00000
 2280.48830   73.09625    0.00113    5.65329    1.00000
 2280.98830   91.02661    0.00111    0.88498    1.00000
 2281.48830   87.73859    0.00114    4.70190    1.00000
 2281.98830   83.94105    0.00116   11.80738    1.00000
 2282.48830   84.15216    0.00116    5.83146    1.00000
 2282.98830   84.45953    0.00114    1.81900    1.00000
 2283.48830   87.35503    0.00112    5.22315    1.00000
 2283.98830   90.31268    0.00108   11.24102    1.00000
 2284.48830   95.01109    0.00104    6.87244    1.00000
 2284.98830   99.75129    0.00107    2.62818    1.00000
 2285.48830   86.92993    0.00120    3.73787    1.00000
 2285.98830   73.68687    0.00125    5.46780    1.00000
 2286.48830   75.11113    0.00124    2.89786    1.00000
 2286.98830   76.88760    0.00121    1.05355    1.00000
 2287.48830   79.67297    0.00119    1.95345    1.00000
 2287.98830   82.48257    0.00119    3.13186    1.00000
 2288.48830   79.67091    0.00122    2.49084    1.00000
 2288.98830   76.72427    0.00123    1.96285    1.00000
 2289.48830   76.87506    0.00123    1.61781    1.00000
 2289.98830   77.10023    0.00121    1.34179    1.00000
 2290.48830   80.38342    0.00118    0.90777    1.00000
 2290.98830   83.74005    0.00115    0.53428    1.00000
 2291.48830   86.61423    0.00112    1.84067    1.00000
 2291.98830   89.47681    0.00114    3.81791    1.00000
 2292.48830   83.27459    0.00120    7.62888    1.00000
 2292.98830   76.85468    0.00118   13.93535    1.00000
 2293.48830   86.33841    0.00109    7.37587    1.00000
 2293.98830   96.20403    0.00109    1.71546    1.00000
 2294.48830   87.96898    0.00116    3.24972    1.00000
 2294.98830   79.29928    0.00120    5.56822    1.00000
 2295.48830   80.36963    0.00119    6.92969    1.00000
 2295.98830   81.67387    0.00118    8.39387    1.00000
 2296.48830   82.38889    0.00117    4.10047    1.00000
 2296.98830   83.08976    0.00116    1.24932    1.00000
 2297.48830   84.47821    0.00115    1.22644    1.00000
 2297.98830   85.88318    0.00115    1.21628    1.00000
 2298.48830   84.02401    0.00117    0.79192    1.00000
 2298.98830   82.08646    0.00116    0.48573    1.00000
 2299.48830   86.04738    0.00112    0.38726    1.00000
 2299.98830   90.14993    0.00111    0.28061    1.00000
 2300.48830   88.23618    0.00113    2.18880    1.00000
 2300.98830   86.17795    0.00118    5.54148    1.00000
 2301.48830   77.98920    0.00126   14.79513    1.00000
 2301.98830   69.65324    0.00128   29.39506    1.00000
 2302.48830   73.73029    0.00124   14.33956    1.00000
 2302.98830   78.10541    0.00119    3.81693    1.00000
 2303.48830   83.29588    0.00114    8.86864    1.00000
 2303.98830   88.50593    0.00112   16.52784    1.00000
 2304.48830   87.79863    0.00113    8.50644    1.00000
 2304.98830   86.94923    0.00116    2.89366    1.00000
 2305.48830   82.11366    0.00120    2.24752    1.00000
 2305.98830   77.18236    0.00124    1.80991    1.00000
 2306.48830   74.12591    0.00127    1.75159    1.00000
 2306.98830   71.11447    0.00124    1.89181    1.00000
 2307.48830   80.92510    0.00114    7.43700    1.00000
 2307.98830   91.04362    0.00112   16.51335    1.00000
 2308.48830   85.28981    0.00118    6.85853    1.00000
 2308.98830   79.15485    0.00123    1.60691    1.00000
 2309.48830   74.76926    0.00127    2.07630    1.00000
 2309.98830   70.42567    0.00125    2.94077    1.00000
 2310.48830   66.19905    0.00118    6.28457    1.00000
 2310.98830   61.97525    0.00114   11.03673    1.00000
 2311.48830   74.47685    0.00113    4.47818    1.00000
 2311.98830   87.38008    0.00116    0.66139    1.00000
 2312.48830   81.40427    0.00122    2.47714    1.00000
 2312.98830   74.97511    0.00125    5.52361    1.00000
 2313.48830   73.81788    0.00126    9.88425    1.00000
 2313.98830   72.78725    0.00127   15.46904    1.00000
 2314.48830   72.23264    0.00127   18.36915    1.00000
 2314.98830   71.68947    0.00124   22.84520    1.00000
 2315.48830   79.16467    0.00117   11.64799    1.00000
 2315.98830   86.83241    0.00116    2.87229    1.00000
 2316.48830   81.59676    0.00121    3.24449    1.00000
 2316.98830   76.05127    0.00121    4.13005    1.00000
 2317.48830   81.85589    0.00115    5.11489    1.00000
 2317.98830   87.93307    0.00120    5.16249    1.00000
 2318.48830   78.78931    0.00136    3.35694    1.00000
 2318.98830   69.28005    0.00140    2.62385    1.00000
 2319.48830   70.00967    0.00133    2.90701    1.00000
 2319.98830   70.98516    0.00124    3.27383    1.00000
 2320.48830   79.47251    0.00116    3.63668    1.00000
 2320.98830   88.14026    0.00114    3.65546    1.00000
 2321.48830   85.05995    0.00117    3.77732    1.00000
 2321.98830   81.69755    0.00117    4.13328    1.00000
 2322.48830   85.11821    0.00113    2.48328    1.00000
 2322.98830   88.70175    0.00113    1.08470    1.00000
 2323.48830   85.62643    0.00116    0.92687    1.00000
 2323.98830   82.39120    0.00121    0.78646    1.00000
 2324.48830   76.07689    0.00127    1.50215    1.00000
 2324.98830   69.68863    0.00127    2.61517    1.00000
