# LAS format log file from PETREL
# Project units are specified as depth units
#==================================================================
~Version information
VERS.   2.0:
WRAP.   NO:
#==================================================================
~Well
STRT .m      1467.4883000 :
STOP .m      2627.9883000 :
STEP .m     0.50000000 :
NULL .        -999.250000 :
COMP.           : COMPANY
WELL.  B2   : WELL
FLD.            : FIELD
LOC.            : LOCATION
SRVC.           : SERVICE COMPANY
DATE.  2024-10-09 18:19:32   : Log Export Date {yyyy-MM-dd HH:mm:ss}
PROV.           : PROVINCE
UWI.      : UNIQUE WELL ID
API.            : API NUMBER
#==================================================================
~Curve
DEPT .m                   : DEPTH
Gamma .gAPI               : Gamma
Porosity .m3/m3           : Porosity
Resistivity .ohm.m        : Resistivity
LITH ._                   : LITH
~Parameter
#==================================================================
~Ascii
# ...
 1610.48830   72.19625    0.00228    4.75686    3.00000
 1610.98830   70.80585    0.00224   11.79376    3.00000
 1611.48830   81.04429    0.00214    4.36894    2.00000
 1611.98830   91.56198    0.00210    0.26903    2.00000
 1612.48830   90.20314    0.00211    0.22643    2.00000
 1612.98830   88.55910    0.00213    0.22044    2.00000
 1613.48830   85.89184    0.00216    0.22347    2.00000
 1613.98830   83.20000    0.00219    0.22399    2.00000
 1614.48830   78.01320    0.00224    0.57859    3.00000
 1614.98830   72.76648    0.00233    1.04012    3.00000
 1615.48830   68.78609    0.00247    1.47636    3.00000
 1615.98830   64.83610    0.00247    2.17483    3.00000
 1616.48830   70.21214    0.00232    1.45398    3.00000
 1616.98830   75.81213    0.00222    0.73469    3.00000
 1617.48830   80.91123    0.00217    0.61354    2.00000
 1617.98830   85.99830    0.00215    0.49105    2.00000
 1618.48830   83.80907    0.00217    0.64595    2.00000
 1618.98830   81.44511    0.00223    0.79611    3.00000
 1619.48830   74.63206    0.00233    0.70455    3.00000
 1619.98830   67.71218    0.00239    0.63998    3.00000
 1620.48830   68.12840    0.00243    0.71245    3.00000
 1620.98830   68.72078    0.00238    0.84205    3.00000
 1621.48830   73.48852    0.00227    2.13676    3.00000
 1621.98830   78.35651    0.00221    4.12499    3.00000
 1622.48830   80.09563    0.00219    2.44985    2.00000
 1622.98830   81.75962    0.00214    1.17898    2.00000
 1623.48830   90.95625    0.00205    0.78374    2.00000
 1623.98830  100.33378    0.00207    0.40243    2.00000
 1624.48830   86.75738    0.00220    0.36539    3.00000
 1624.98830   72.62978    0.00227    0.36242    3.00000
 1625.48830   73.10132    0.00226    0.70947    3.00000
 1625.98830   73.92342    0.00221    1.24024    3.00000
 1626.48830   83.94521    0.00211    0.80483    2.00000
 1626.98830   94.18791    0.00209    0.38491    2.00000
 1627.48830   89.10180    0.00214    0.62819    2.00000
 1627.98830   83.64759    0.00217    0.94975    2.00000
 1628.48830   81.78056    0.00219    0.68558    2.00000
 1628.98830   79.99966    0.00221    0.45446    3.00000
 1629.48830   76.93109    0.00224    0.75742    3.00000
 1629.98830   73.83160    0.00224    1.17553    3.00000
 1630.48830   76.86846    0.00221    4.11611    3.00000
 1630.98830   80.05267    0.00220    8.93669    3.00000
 1631.48830   78.97052    0.00221    6.05537    3.00000
 1631.98830   77.78591    0.00222    3.64905    3.00000
 1632.48830   78.38473    0.00221    2.69295    3.00000
 1632.98830   79.02637    0.00219    1.92266    2.00000
 1633.48830   82.64265    0.00216    0.78782    2.00000
 1633.98830   86.33036    0.00216    0.12828    2.00000
 1634.48830   82.35117    0.00220    0.50267    2.00000
 1634.98830   78.18786    0.00221    1.16957    3.00000
 1635.48830   79.89204    0.00219    0.90086    2.00000
 1635.98830   81.73711    0.00219    0.63169    2.00000
 1636.48830   79.63631    0.00221    0.79816    3.00000
 1636.98830   77.44075    0.00219    1.03019    2.00000
 1637.48830   70.93001    0.00214    4.18414    2.00000
 1637.98830   64.31564    0.00211    9.64669    2.00000
 1638.48830   75.43310    0.00213    3.48794    2.00000
 1638.98830   86.97634    0.00213    0.34931    2.00000
 1639.48830   87.85421    0.00212    1.88081    2.00000
 1639.98830   88.47597    0.00215    4.70769    2.00000
 1640.48830   82.21085    0.00221    7.75465    3.00000
 1640.98830   75.78036    0.00222   11.80541    3.00000
 1641.48830   79.05807    0.00219    5.04548    2.00000
 1641.98830   82.56890    0.00218    0.92029    2.00000
 1642.48830   80.81812    0.00220    0.55289    2.00000
 1642.98830   78.94100    0.00219    0.31760    2.00000
 1643.48830   82.11865    0.00216    0.35359    2.00000
 1643.98830   85.41769    0.00219    0.37574    2.00000
 1644.48830   73.21551    0.00228    1.48837    3.00000
 1644.98830   60.64110    0.00225    3.60419    3.00000
 1645.48830   80.15698    0.00209    2.91007    2.00000
 1645.98830  100.44345    0.00201    1.91007    2.00000
 1646.48830   99.43899    0.00202    1.01406    2.00000
 1646.98830   97.92327    0.00209    0.38536    2.00000
 1647.48830   86.20936    0.00220    0.22554    2.00000
 1647.98830   74.25056    0.00224    0.13073    3.00000
 1648.48830   77.72564    0.00220    0.94175    3.00000
 1648.98830   81.57133    0.00219    2.55393    2.00000
 1649.48830   79.86092    0.00221    1.61053    3.00000
 1649.98830   78.01708    0.00230    0.78906    3.00000
 1650.48830   73.67648    0.00248    1.91083    3.00000
 1650.98830   69.27592    0.00247    3.91093    3.00000
 1651.48830   77.10272    0.00226    2.19193    3.00000
 1651.98830   85.22314    0.00217    0.61502    2.00000
 1652.48830   81.75358    0.00220    0.85675    2.00000
 1652.98830   78.00571    0.00220    1.21036    3.00000
 1653.48830   81.28082    0.00217    0.68452    2.00000
 1653.98830   84.72457    0.00215    0.28353    2.00000
 1654.48830   86.61989    0.00213    0.30792    2.00000
 1654.98830   88.47802    0.00215    0.33075    2.00000
 1655.48830   82.87669    0.00220    0.55225    2.00000
 1655.98830   77.09622    0.00223    0.83557    3.00000
 1656.48830   75.31963    0.00225    0.57626    3.00000
 1656.98830   73.63918    0.00222    0.37441    3.00000
 1657.48830   81.34921    0.00215    0.46194    2.00000
 1657.98830   89.28474    0.00211    0.55250    2.00000
 1658.48830   89.13367    0.00211    0.23818    2.00000
 1658.98830   88.78842    0.00214    0.04974    2.00000
 1659.48830   83.02532    0.00220    0.40678    2.00000
 1659.98830   77.13213    0.00222    1.12564    3.00000
 1660.48830   77.46972    0.00222    0.57137    3.00000
 1660.98830   77.95694    0.00219    0.19104    2.00000
 1661.48830   83.43377    0.00214    0.40382    2.00000
 1661.98830   89.03041    0.00218    0.66826    2.00000
 1662.48830   79.15682    0.00232    1.58833    3.00000
 1662.98830   68.91174    0.00244    2.78717    3.00000
 1663.48830   68.43715    0.00253    2.54231    3.00000
 1663.98830   68.19718    0.00248    2.61931    3.00000
 1664.48830   76.46194    0.00226    1.44157    3.00000
 1664.98830   84.93094    0.00217    0.39656    2.00000
 1665.48830   81.83415    0.00220    0.73929    2.00000
 1665.98830   78.45963    0.00222    1.22894    3.00000
 1666.48830   77.60082    0.00222    1.60516    3.00000
 1666.98830   76.80242    0.00223    2.02653    3.00000
 1667.48830   76.46011    0.00223    1.55189    3.00000
 1667.98830   76.12876    0.00222    1.14061    3.00000
 1668.48830   78.85097    0.00220    0.73483    2.00000
 1668.98830   81.64650    0.00220    0.39895    2.00000
 1669.48830   78.79279    0.00222    0.89379    3.00000
 1669.98830   75.80344    0.00225    1.60016    3.00000
 1670.48830   73.39277    0.00227    1.24453    3.00000
 1670.98830   70.99600    0.00227    0.94201    3.00000
 1671.48830   74.16977    0.00224    1.33538    3.00000
 1671.98830   77.47730    0.00220    1.85610    2.00000
 1672.48830   83.29676    0.00214    0.85881    2.00000
 1672.98830   89.17654    0.00214    0.19000    2.00000
 1673.48830   82.48927    0.00221    0.78522    3.00000
 1673.98830   75.50024    0.00223    1.85257    3.00000
 1674.48830   78.81602    0.00219    1.11571    2.00000
 1674.98830   82.37926    0.00226    0.47232    3.00000
 1675.48830   74.51213    0.00243    1.15774    3.00000
 1675.98830   66.37052    0.00243    2.34190    3.00000
 1676.48830   73.70646    0.00227    1.22313    3.00000
 1676.98830   81.41405    0.00214    0.32766    2.00000
 1677.48830   90.96183    0.00205    0.17112    2.00000
 1677.98830  100.55380    0.00201    0.05894    2.00000
 1678.48830   99.15498    0.00203    0.08417    2.00000
 1678.98830   97.49223    0.00209    0.11076    2.00000
 1679.48830   85.00642    0.00221    0.30200    3.00000
 1679.98830   72.26072    0.00226    0.59673    3.00000
 1680.48830   75.12832    0.00223    0.44166    3.00000
 1680.98830   78.37084    0.00219    0.29891    2.00000
 1681.48830   82.70142    0.00215    0.17740    2.00000
