# LAS format log file from PETREL
# Project units are specified as depth units
#==================================================================
~Version information
VERS.   2.0:
WRAP.   NO:
#==================================================================
~Well
STRT .m      1467.4883000 :
STOP .m      2627.9883000 :
STEP .m     0.50000000 :
NULL .        -999.250000 :
COMP.           : COMPANY
WELL.  B2   : WELL
FLD.            : FIELD
LOC.            : LOCATION
SRVC.           : SERVICE COMPANY
DATE.  2024-10-09 18:19:32   : Log Export Date {yyyy-MM-dd HH:mm:ss}
PROV.           : PROVINCE
UWI.      : UNIQUE WELL ID
API.            : API NUMBER
#==================================================================
~Curve
DEPT .m                   : DEPTH
Gamma .gAPI               : Gamma
Porosity .m3/m3           : Porosity
Resistivity .ohm.m        : Resistivity
LITH ._                   : LITH
~Parameter
#==================================================================
~Ascii
# ...
 2110.98830   92.03580    0.00203    0.18736    2.00000
 2111.48830   81.75414    0.00213    0.74242    2.00000
 2111.98830   71.21822    0.00215    1.73357    2.00000
 2112.48830   77.70621    0.00209    1.30533    2.00000
 2112.98830   84.60300    0.00205    0.85753    2.00000
 2113.48830   85.56499    0.00204    0.92101    2.00000
 2113.98830   86.38445    0.00202    1.01336    2.00000
 2114.48830   89.89869    0.00199    0.76203    2.00000
 2114.98830   93.47764    0.00202    0.49598    2.00000
 2115.48830   77.72288    0.00212    3.43694    2.00000
 2115.98830   61.50385    0.00216    9.03128    2.00000
 2116.48830   68.51573    0.00214    3.83932    2.00000
 2116.98830   76.08546    0.00213    0.70857    2.00000
 2117.48830   77.61067    0.00211    0.53675    2.00000
 2117.98830   78.99073    0.00209    0.42168    2.00000
 2118.48830   81.99176    0.00207    0.32126    2.00000
 2118.98830   85.03171    0.00213    0.21067    2.00000
 2119.48830   75.46549    0.00229    0.54232    3.00000
 2119.98830   65.59657    0.00228    1.12792    3.00000
 2120.48830   77.53214    0.00210    1.08398    2.00000
 2120.98830   89.99130    0.00202    0.89334    2.00000
 2121.48830   86.05707    0.00206    0.60450    2.00000
 2121.98830   81.72918    0.00206    0.39773    2.00000
 2122.48830   87.36137    0.00200    0.23850    2.00000
 2122.98830   93.23274    0.00199    0.10808    2.00000
 2123.48830   89.18612    0.00203    0.36904    2.00000
 2123.98830   84.90134    0.00208    0.78026    2.00000
 2124.48830   80.03445    0.00212    1.15281    2.00000
 2124.98830   75.15357    0.00225    1.44851    3.00000
 2125.48830   70.68128    0.00246    7.95071    3.00000
 2125.98830   66.21880    0.00252   20.01552    3.00000
 2126.48830   65.68739    0.00241   15.96419    3.00000
 2126.98830   65.25037    0.00229   11.77649    3.00000
 2127.48830   73.03758    0.00216    5.12139    2.00000
 2127.98830   81.02229    0.00209    0.77208    2.00000
 2128.48830   81.53663    0.00208    0.68760    2.00000
 2128.98830   81.87159    0.00210    0.64749    2.00000
 2129.48830   78.01652    0.00214    1.21436    2.00000
 2129.98830   74.06084    0.00212    2.04685    2.00000
 2130.48830   80.43105    0.00206    1.48267    2.00000
 2130.98830   87.04921    0.00205    0.90788    2.00000
 2131.48830   84.17286    0.00207    2.04769    2.00000
 2131.98830   81.06851    0.00209    3.71099    2.00000
 2132.48830   80.98737    0.00209    1.97376    2.00000
 2132.98830   80.97881    0.00211    0.72361    2.00000
 2133.48830   76.92947    0.00215    0.75666    2.00000
 2133.98830   72.78309    0.00216    0.83329    2.00000
 2134.48830   73.95105    0.00215    1.04423    2.00000
 2134.98830   75.24663    0.00212    1.31093    2.00000
 2135.48830   80.56790    0.00207    0.83876    2.00000
 2135.98830   85.98585    0.00206    0.42398    2.00000
 2136.48830   83.01122    0.00209    0.33645    2.00000
 2136.98830   79.83505    0.00212    0.26324    2.00000
 2137.48830   74.54358    0.00217    1.46463    2.00000
 2137.98830   69.20130    0.00219    3.70919    2.00000
 2138.48830   67.18610    0.00216    6.82347    2.00000
 2138.98830   65.25080    0.00219   10.39055    2.00000
 2139.48830   66.93933    0.00228    4.45384    3.00000
 2139.98830   68.71488    0.00224    1.23904    3.00000
 2140.48830   79.81251    0.00208    1.08618    2.00000
 2140.98830   91.13399    0.00201    0.86916    2.00000
 2141.48830   88.28102    0.00204    0.62257    2.00000
 2141.98830   85.08768    0.00205    0.43001    2.00000
 2142.48830   85.64924    0.00204    0.50133    2.00000
 2142.98830   86.30096    0.00207    0.56544    2.00000
 2143.48830   80.02605    0.00213    2.00195    2.00000
 2143.98830   73.58482    0.00214    4.40556    2.00000
 2144.48830   76.63445    0.00211    3.14092    2.00000
 2144.98830   79.91199    0.00203    2.09688    2.00000
 2145.48830   71.86152    0.00190    4.70791    2.00000
 2145.98830   63.53902    0.00187    8.14027    2.00000
 2146.48830   76.87213    0.00195    3.15848    2.00000
 2146.98830   90.72527    0.00201    0.58595    2.00000
 2147.48830   88.24804    0.00203    0.83609    2.00000
 2147.98830   85.37868    0.00202    1.23888    2.00000
 2148.48830   92.45888    0.00195    0.99585    2.00000
 2148.98830   99.77800    0.00192    0.71456    2.00000
 2149.48830   84.13221    0.00193    4.41917    2.00000
 2149.98830   67.93497    0.00199   10.77485    2.00000
 2150.48830   70.08520    0.00211    3.87220    2.00000
 2150.98830   72.67601    0.00214    0.60316    2.00000
 2151.48830   78.18490    0.00209    0.60621    2.00000
 2151.98830   83.76385    0.00206    0.64357    2.00000
 2152.48830   85.35680    0.00204    1.79088    2.00000
 2152.98830   86.85403    0.00204    3.55515    2.00000
 2153.48830   86.41508    0.00204    1.93431    2.00000
 2153.98830   85.92964    0.00208    0.73810    2.00000
 2154.48830   78.79115    0.00214    0.69836    2.00000
 2154.98830   71.49290    0.00218    0.70149    2.00000
 2155.48830   67.43523    0.00219    7.50667    2.00000
 2155.98830   63.45538    0.00218   22.18009    2.00000
 2156.48830   69.02287    0.00216   11.46698    2.00000
 2156.98830   74.81961    0.00211    3.89017    2.00000
 2157.48830   81.90221    0.00205    3.40586    2.00000
 2157.98830   89.01568    0.00200    2.97499    2.00000
 2158.48830   92.04453    0.00197    1.18336    2.00000
 2158.98830   94.97530    0.00197    0.16984    2.00000
 2159.48830   92.02794    0.00200    0.51612    2.00000
 2159.98830   88.93943    0.00200    1.11655    2.00000
 2160.48830   92.78706    0.00196    0.72978    2.00000
 2160.98830   96.80125    0.00195    0.38319    2.00000
 2161.48830   94.41455    0.00198    0.53755    2.00000
 2161.98830   91.87415    0.00203    0.70510    2.00000
 2162.48830   83.38745    0.00211    0.82065    2.00000
 2162.98830   74.75797    0.00213    0.99281    2.00000
 2163.48830   79.16980    0.00208    0.73857    2.00000
 2163.98830   83.89479    0.00204    0.50547    2.00000
 2164.48830   89.06219    0.00199    0.23375    2.00000
 2164.98830   94.24020    0.00200    0.05463    2.00000
 2165.48830   86.67970    0.00207    0.46608    2.00000
 2165.98830   78.81332    0.00211    1.29101    2.00000
 2166.48830   70.42327    0.00210    4.58154    2.00000
 2166.98830   62.02064    0.00207   10.34086    2.00000
 2167.48830   77.75321    0.00200    5.01569    2.00000
 2167.98830   94.06535    0.00202    1.16830    2.00000
 2168.48830   83.20277    0.00212    1.09506    2.00000
 2168.98830   71.68764    0.00216    1.15542    2.00000
 2169.48830   74.53349    0.00214    0.57738    2.00000
 2169.98830   77.72418    0.00208    0.18676    2.00000
 2170.48830   86.23449    0.00200    0.14663    2.00000
 2170.98830   94.87254    0.00201    0.10251    2.00000
 2171.48830   84.39565    0.00211    1.15671    2.00000
 2171.98830   73.45975    0.00211    3.47336    2.00000
 2172.48830   69.30264    0.00202   47.80447    2.00000
 2172.98830   65.30831    0.00201  143.61539    3.00000
 2173.48830   69.25460    0.00211   52.47230    3.00000
 2173.98830   73.39156    0.00215    7.94856    2.00000
 2174.48830   74.51633    0.00215    3.65687    2.00000
 2174.98830   75.56876    0.00214    1.16158    2.00000
 2175.48830   76.19334    0.00213    0.60409    2.00000
 2175.98830   76.80763    0.00211    0.24326    2.00000
 2176.48830   81.85999    0.00206    0.22142    2.00000
 2176.98830   87.01892    0.00205    0.19708    2.00000
 2177.48830   83.89810    0.00208    0.37015    2.00000
 2177.98830   80.57845    0.00210    0.60394    2.00000
 2178.48830   79.94994    0.00210    1.43812    2.00000
 2178.98830   79.38605    0.00210    2.64849    2.00000
 2179.48830   79.40714    0.00210    1.99921    2.00000
 2179.98830   79.44228    0.00208    1.43297    2.00000
 2180.48830   83.60027    0.00205    1.13650    2.00000
 2180.98830   87.85725    0.00204    0.83412    2.00000
 2181.48830   84.34557    0.00208    0.56755    2.00000
 2181.98830   80.64735    0.00209    0.36719    2.00000
