# LAS format log file from PETREL
# Project units are specified as depth units
#==================================================================
~Version information
VERS.   2.0:
WRAP.   NO:
#==================================================================
~Well
STRT .m      1467.4883000 :
STOP .m      2627.9883000 :
STEP .m     0.50000000 :
NULL .        -999.250000 :
COMP.           : COMPANY
WELL.  B2   : WELL
FLD.            : FIELD
LOC.            : LOCATION
SRVC.           : SERVICE COMPANY
DATE.  2024-10-09 18:19:32   : Log Export Date {yyyy-MM-dd HH:mm:ss}
PROV.           : PROVINCE
UWI.      : UNIQUE WELL ID
API.            : API NUMBER
#==================================================================
~Curve
DEPT .m                   : DEPTH
Gamma .gAPI               : Gamma
Porosity .m3/m3           : Porosity
Resistivity .ohm.m        : Resistivity
LITH ._                   : LITH
~Parameter
#==================================================================
~Ascii
# ...
 1896.48830   92.07059    0.00205    0.12172    2.00000
 1896.98830   99.60253    0.00204    0.12637    2.00000
 1897.48830   93.87251    0.00210    0.11038    2.00000
 1897.98830   87.82403    0.00213    0.09868    2.00000
 1898.48830   87.77591    0.00213    0.26927    2.00000
 1898.98830   87.87189    0.00219    0.49624    2.00000
 1899.48830   77.66285    0.00233    0.90362    3.00000
 1899.98830   67.20636    0.00233    1.54586    3.00000
 1900.48830   77.46236    0.00219    0.73972    2.00000
 1900.98830   88.21572    0.00221    0.13550    3.00000
 1901.48830   77.50166    0.00240    1.42035    3.00000
 1901.98830   66.27211    0.00241    4.26243    3.00000
 1902.48830   74.90921    0.00225    2.20816    3.00000
 1902.98830   84.02338    0.00215    0.53825    2.00000
 1903.48830   86.86996    0.00212    0.32682    2.00000
 1903.98830   89.56605    0.00212    0.17353    2.00000
 1904.48830   87.94163    0.00213    0.30316    2.00000
 1904.98830   86.21346    0.00224    0.43225    3.00000
 1905.48830   70.31030    0.00245    1.28050    3.00000
 1905.98830   54.06676    0.00249    2.71312    3.00000
 1906.48830   62.13931    0.00236    2.47859    3.00000
 1906.98830   70.79576    0.00227    2.06708    3.00000
 1907.48830   74.24626    0.00224    1.19599    3.00000
 1907.98830   77.57175    0.00220    0.54059    3.00000
 1908.48830   81.66541    0.00216    0.40367    2.00000
 1908.98830   85.77750    0.00215    0.28226    2.00000
 1909.48830   84.58989    0.00216    0.32263    2.00000
 1909.98830   83.27502    0.00219    0.36314    2.00000
 1910.48830   78.44581    0.00224    3.08136    3.00000
 1910.98830   73.53222    0.00227    8.43484    3.00000
 1911.48830   71.81914    0.00228    4.06569    3.00000
 1911.98830   70.18291    0.00223    1.28071    3.00000
 1912.48830   83.62038    0.00210    0.58884    2.00000
 1912.98830   97.41981    0.00204    0.12403    2.00000
 1913.48830   96.93810    0.00204    0.10117    2.00000
 1913.98830   96.11346    0.00207    0.08453    2.00000
 1914.48830   91.27028    0.00212    0.15709    2.00000
 1914.98830   86.33061    0.00211    0.26310    2.00000
 1915.48830   91.94096    0.00206    0.21062    2.00000
 1915.98830   97.80463    0.00206    0.14883    2.00000
 1916.48830   92.06606    0.00211    0.32542    2.00000
 1916.98830   86.04887    0.00215    0.57513    2.00000
 1917.48830   84.39018    0.00216    1.05360    2.00000
 1917.98830   82.83617    0.00218    1.66480    2.00000
 1918.48830   80.51823    0.00220    1.02197    3.00000
 1918.98830   78.18195    0.00223    0.52312    3.00000
 1919.48830   74.91485    0.00226    7.71806    3.00000
 1919.98830   71.62540    0.00227   23.92752    3.00000
 1920.48830   74.16885    0.00224    7.85872    3.00000
 1920.98830   76.85239    0.00222    0.31182    3.00000
 1921.48830   78.19836    0.00221    0.17260    3.00000
 1921.98830   79.51221    0.00216    0.10778    2.00000
 1922.48830   88.54710    0.00208    0.12650    2.00000
 1922.98830   97.76740    0.00207    0.13824    2.00000
 1923.48830   89.54912    0.00215    0.13318    2.00000
 1923.98830   80.91208    0.00221    0.13037    3.00000
 1924.48830   75.87357    0.00226    1.18004    3.00000
 1924.98830   70.92148    0.00226    3.37671    3.00000
 1925.48830   75.97047    0.00221    4.56655    3.00000
 1925.98830   81.25963    0.00217    5.89108    2.00000
 1926.48830   84.37573    0.00214    3.66155    2.00000
 1926.98830   87.43966    0.00214    1.81771    2.00000
 1927.48830   85.50421    0.00216    3.31024    2.00000
 1927.98830   83.44872    0.00215    5.46045    2.00000
 1928.48830   86.96111    0.00212    2.17787    2.00000
 1928.98830   90.60720    0.00214    0.28523    2.00000
 1929.48830   82.51036    0.00221    2.33926    3.00000
 1929.98830   74.13153    0.00224    6.55202    3.00000
 1930.48830   77.24509    0.00221    2.61287    3.00000
 1930.98830   80.63462    0.00218    0.35314    2.00000
 1931.48830   83.81258    0.00215    0.23202    2.00000
 1931.98830   86.98547    0.00215    0.14614    2.00000
 1932.48830   83.39605    0.00218    0.24952    2.00000
 1932.98830   79.64426    0.00219    0.39483    2.00000
 1933.48830   83.17567    0.00215    0.35952    2.00000
 1933.98830   86.88198    0.00214    0.31166    2.00000
 1934.48830   85.00053    0.00216    0.37676    2.00000
 1934.98830   82.98489    0.00218    0.45071    2.00000
 1935.48830   81.45049    0.00219    1.15835    2.00000
 1935.98830   79.92764    0.00220    2.21743    2.00000
 1936.48830   79.95182    0.00220    2.33111    2.00000
 1936.98830   80.01315    0.00221    2.40182    3.00000
 1937.48830   78.49261    0.00222    1.67305    3.00000
 1937.98830   76.93408    0.00218    1.12798    2.00000
 1938.48830   71.54824    0.00209    5.51536    2.00000
 1938.98830   66.07050    0.00209   13.07397    2.00000
 1939.48830   70.50591    0.00219    4.35742    2.00000
 1939.98830   75.17938    0.00223    0.44113    3.00000
 1940.48830   76.97370    0.00222    0.67347    3.00000
 1940.98830   78.69888    0.00220    1.03468    3.00000
 1941.48830   80.34628    0.00219    0.79532    2.00000
 1941.98830   81.99180    0.00221    0.55324    3.00000
 1942.48830   76.39632    0.00226    0.33527    3.00000
 1942.98830   70.62696    0.00228    0.18397    3.00000
 1943.48830   71.94774    0.00227    0.53263    3.00000
 1943.98830   73.43877    0.00224    1.10935    3.00000
 1944.48830   70.75107    0.00219    0.75175    2.00000
 1944.98830   67.96302    0.00220    0.41474    2.00000
 1945.48830   69.76217    0.00225    2.58672    3.00000
 1945.98830   71.67147    0.00225    6.81188    3.00000
 1946.48830   76.17168    0.00221    3.10998    3.00000
 1946.98830   80.73412    0.00216    0.70466    2.00000
 1947.48830   87.80656    0.00209    0.39609    2.00000
 1947.98830   94.93927    0.00208    0.16878    2.00000
 1948.48830   90.31374    0.00213    0.39122    2.00000
 1948.98830   85.40585    0.00217    0.70807    2.00000
 1949.48830   81.14194    0.00221    2.98851    3.00000
 1949.98830   76.89350    0.00223    6.86247    3.00000
 1950.48830   76.34051    0.00224    5.23628    3.00000
 1950.98830   75.87626    0.00229    3.53954    3.00000
 1951.48830   72.26311    0.00240    1.81261    3.00000
 1951.98830   68.57435    0.00240    0.81221    3.00000
 1952.48830   71.93858    0.00230    0.57147    3.00000
 1952.98830   75.47218    0.00223    0.35013    3.00000
 1953.48830   79.11087    0.00219    0.28270    2.00000
 1953.98830   82.75208    0.00219    0.21463    2.00000
 1954.48830   78.23696    0.00224    0.21728    3.00000
 1954.98830   73.52598    0.00226    0.22653    3.00000
 1955.48830   73.89247    0.00225    0.22153    3.00000
 1955.98830   74.38089    0.00225    0.21528    3.00000
 1956.48830   73.90974    0.00226    1.14580    3.00000
 1956.98830   73.41556    0.00221    3.01268    3.00000
 1957.48830   84.79947    0.00210    1.68276    2.00000
 1957.98830   96.46861    0.00209    0.53697    2.00000
 1958.48830   85.70427    0.00220    0.86551    2.00000
 1958.98830   74.40124    0.00221    1.39047    3.00000
 1959.48830   83.86596    0.00212    0.64009    2.00000
 1959.98830   93.82938    0.00207    0.12677    2.00000
 1960.48830   92.92283    0.00208    0.12144    2.00000
 1960.98830   91.75526    0.00211    0.12210    2.00000
 1961.48830   88.04924    0.00214    4.10890    2.00000
 1961.98830   84.28226    0.00214   14.06930    2.00000
 1962.48830   88.00954    0.00211    7.06341    2.00000
 1962.98830   91.91679    0.00212    1.99521    2.00000
 1963.48830   84.62173    0.00219    1.36406    2.00000
 1963.98830   77.05768    0.00223    0.95601    3.00000
 1964.48830   76.57098    0.00223    0.80491    3.00000
 1964.98830   76.25422    0.00222    0.67888    3.00000
 1965.48830   78.36115    0.00220    0.93581    3.00000
 1965.98830   80.52628    0.00219    1.24061    2.00000
 1966.48830   71.04686    0.00219    1.80665    2.00000
 1966.98830   61.28781    0.00227    2.29272    3.00000
 1967.48830   63.35755    0.00244    2.35578    3.00000
