# LAS format log file from PETREL
# Project units are specified as depth units
#==================================================================
~Version information
VERS.   2.0:
WRAP.   NO:
#==================================================================
~Well
STRT .m      1467.4883000 :
STOP .m      2627.9883000 :
STEP .m     0.50000000 :
NULL .        -999.250000 :
COMP.           : COMPANY
WELL.  B2   : WELL
FLD.            : FIELD
LOC.            : LOCATION
SRVC.           : SERVICE COMPANY
DATE.  2024-10-09 18:19:32   : Log Export Date {yyyy-MM-dd HH:mm:ss}
PROV.           : PROVINCE
UWI.      : UNIQUE WELL ID
API.            : API NUMBER
#==================================================================
~Curve
DEPT .m                   : DEPTH
Gamma .gAPI               : Gamma
Porosity .m3/m3           : Porosity
Resistivity .ohm.m        : Resistivity
LITH ._                   : LITH
~Parameter
#==================================================================
~Ascii
# ...
 2325.48830   75.60519    0.00121    1.76993    1.00000
 2325.98830   81.81724    0.00118    0.93254    1.00000
 2326.48830   81.59005    0.00119    3.66866    1.00000
 2326.98830   81.20824    0.00118    8.44355    1.00000
 2327.48830   82.04249    0.00118    3.61260    1.00000
 2327.98830   82.90594    0.00118    0.67707    1.00000
 2328.48830   81.31971    0.00119    1.74422    1.00000
 2328.98830   79.67465    0.00120    3.44879    1.00000
 2329.48830   80.00597    0.00120    5.03267    1.00000
 2329.98830   80.38474    0.00119    7.00879    1.00000
 2330.48830   82.41077    0.00117    5.29169    1.00000
 2330.98830   84.47636    0.00114    3.74665    1.00000
 2331.48830   88.14645    0.00111    2.00240    1.00000
 2331.98830   91.85506    0.00109    0.69341    1.00000
 2332.48830   90.33804    0.00111    0.90066    1.00000
 2332.98830   88.69555    0.00115    1.10862    1.00000
 2333.48830   81.78961    0.00121    2.55364    1.00000
 2333.98830   74.75729    0.00123    4.79463    1.00000
 2334.48830   78.89104    0.00119    4.55417    1.00000
 2334.98830   83.29293    0.00119    3.90774    1.00000
 2335.48830   78.66481    0.00123    3.05496    1.00000
 2335.98830   73.81985    0.00132    2.21151    1.00000
 2336.48830   68.27287    0.00144   10.45993    1.00000
 2336.98830   62.70902    0.00146   25.69721    1.00000
 2337.48830   61.96842    0.00139   33.75264    1.00000
 2337.98830   61.34363    0.00130   44.48325    1.00000
 2338.48830   72.74223    0.00121   20.34547    1.00000
 2338.98830   84.42955    0.00119    2.93227    1.00000
 2339.48830   77.99471    0.00125    6.37033    1.00000
 2339.98830   71.12469    0.00129   11.60486    1.00000
 2340.48830   70.19060    0.00129    6.23961    1.00000
 2340.98830   69.39905    0.00130    2.44406    1.00000
 2341.48830   69.36652    0.00130   11.37330    1.00000
 2341.98830   69.35222    0.00130   27.63308    1.00000
 2342.48830   69.80659    0.00129   18.39605    1.00000
 2342.98830   70.27223    0.00129   10.55233    1.00000
 2343.48830   70.98777    0.00128    9.22236    1.00000
 2343.98830   71.70930    0.00125    8.37825    1.00000
 2344.48830   76.82725    0.00120    3.62329    1.00000
 2344.98830   82.05076    0.00118    0.60561    1.00000
 2345.48830   81.51372    0.00119    3.01746    1.00000
 2345.98830   80.83836    0.00120    7.34039    1.00000
 2346.48830   77.96943    0.00123    7.52223    1.00000
 2346.98830   75.04784    0.00123    8.03240    1.00000
 2347.48830   79.11376    0.00119    8.72996    1.00000
 2347.98830   83.34747    0.00119    8.71134    1.00000
 2348.48830   77.56094    0.00125    7.36295    1.00000
 2348.98830   71.53378    0.00128    6.46331    1.00000
 2349.48830   70.51467    0.00129   40.57751    1.00000
 2349.98830   69.61582    0.00124  116.22835    2.00000
 2350.48830   81.44330    0.00113   49.84439    1.00000
 2350.98830   93.57637    0.00112    3.77308    1.00000
 2351.48830   83.28336    0.00122   10.23641    1.00000
 2351.98830   72.45184    0.00125   21.63057    1.00000
 2352.48830   76.88490    0.00121   10.04374    1.00000
 2352.98830   81.68450    0.00128    1.76766    1.00000
 2353.48830   74.92548    0.00149    2.62535    1.00000
 2353.98830   67.88889    0.00150    4.55211    2.00000
 2354.48830   72.57804    0.00132    9.69698    1.00000
 2354.98830   77.54877    0.00123   16.67456    1.00000
 2355.48830   77.04293    0.00123    9.88015    1.00000
 2355.98830   76.40558    0.00120    4.97430    1.00000
 2356.48830   82.70861    0.00114    2.78695    1.00000
 2356.98830   89.17829    0.00112    1.01350    1.00000
 2357.48830   86.76506    0.00115    0.76730    1.00000
 2357.98830   84.13851    0.00113    0.62977    1.00000
 2358.48830   90.11603    0.00108    0.50975    1.00000
 2358.98830   96.30016    0.00108    0.34133    1.00000
 2359.48830   88.99428    0.00115    0.86340    1.00000
 2359.98830   81.36446    0.00117    1.68463    1.00000
 2360.48830   84.31540    0.00114    3.34052    1.00000
 2360.98830   87.52042    0.00114    5.47901    1.00000
 2361.48830   85.92782    0.00115    3.98337    1.00000
 2361.98830   84.22000    0.00114    2.82543    1.00000
 2362.48830   87.87906    0.00111    2.24968    1.00000
 2362.98830   91.66699    0.00108    1.68114    1.00000
 2363.48830   93.44176    0.00106    1.41851    1.00000
 2363.98830   95.16819    0.00110    1.06737    1.00000
 2364.48830   86.81570    0.00118    2.37413    1.00000
 2364.98830   78.22118    0.00120    4.34228    1.00000
 2365.48830   80.48402    0.00118    2.55333    1.00000
 2365.98830   83.00757    0.00121    1.02445    1.00000
 2366.48830   72.88242    0.00130   17.15686    1.00000
 2366.98830   62.45354    0.00136   50.46373    1.00000
 2367.48830   65.41724    0.00138   27.46935    1.00000
 2367.98830   68.70255    0.00133   12.30090    1.00000
 2368.48830   76.29306    0.00122    6.36443    1.00000
 2368.98830   83.98696    0.00116    1.61984    1.00000
 2369.48830   85.15535    0.00115    2.32285    1.00000
 2369.98830   86.16705    0.00118    3.05393    1.00000
 2370.48830   78.22919    0.00125    2.62889    1.00000
 2370.98830   70.07642    0.00125    2.57061    1.00000
 2371.48830   78.09818    0.00118    2.69964    1.00000
 2371.98830   86.50834    0.00114    2.63786    1.00000
 2372.48830   86.33003    0.00114    2.10895    1.00000
 2372.98830   85.94550    0.00117    1.57028    1.00000
 2373.48830   81.17417    0.00121    2.52528    1.00000
 2373.98830   76.29750    0.00124    3.76075    1.00000
 2374.48830   75.08342    0.00125   10.52931    1.00000
 2374.98830   73.95728    0.00118   23.92781    1.00000
 2375.48830   89.99660    0.00103   10.96723    1.00000
 2375.98830  106.44810    0.00099    0.75453    1.00000
 2376.48830   85.57066    0.00107   73.15273    1.00000
 2376.98830   63.79684    0.00114  238.09526    3.00000
 2377.48830   69.97582    0.00120   78.05602    1.00000
 2377.98830   76.82603    0.00122    7.35716    1.00000
 2378.48830   78.54578    0.00120    6.72209    1.00000
 2378.98830   80.14233    0.00120    6.69392    1.00000
 2379.48830   79.30731    0.00121    3.21692    1.00000
 2379.98830   78.41391    0.00121    0.99769    1.00000
 2380.48830   78.87655    0.00121    1.49896    1.00000
 2380.98830   79.37174    0.00120    2.17881    1.00000
 2381.48830   79.82558    0.00120    1.39269    1.00000
 2381.98830   80.27843    0.00119    0.75339    1.00000
 2382.48830   80.56886    0.00119    3.66092    1.00000
 2382.98830   80.85539    0.00117    9.29400    1.00000
 2383.48830   85.07616    0.00113    5.05839    1.00000
 2383.98830   89.39138    0.00119    1.46427    1.00000
 2384.48830   79.52287    0.00136    1.87172    1.00000
 2384.98830   69.31374    0.00135    2.95518    1.00000
 2385.48830   80.86605    0.00117    1.90044    1.00000
 2385.98830   92.94092    0.00105    0.65834    1.00000
 2386.48830   98.55779    0.00100    0.93444    1.00000
 2386.98830  104.01959    0.00104    1.11121    1.00000
 2387.48830   90.84985    0.00116    1.51045    1.00000
 2387.98830   77.23270    0.00123    2.05836    1.00000
 2388.48830   75.44869    0.00125   15.91780    1.00000
 2388.98830   73.94883    0.00123   45.22630    1.00000
 2389.48830   79.26237    0.00118   36.63712    1.00000
 2389.98830   84.73952    0.00123   22.62927    1.00000
 2390.48830   71.95104    0.00138   42.87052    1.00000
 2390.98830   58.72395    0.00133   88.03536    2.00000
 2391.48830   83.47326    0.00106   44.58937    1.00000
 2391.98830  109.13450    0.00099    1.57313    1.00000
 2392.48830   95.02344    0.00113    2.16363    1.00000
 2392.98830   79.95732    0.00121    3.38107    1.00000
 2393.48830   72.21094    0.00123    4.18141    1.00000
 2393.98830   64.64033    0.00123    5.23603    1.00000
 2394.48830   72.77436    0.00120    2.81314    1.00000
 2394.98830   81.28551    0.00118    1.00388    1.00000
 2395.48830   82.22015    0.00117    1.11660    1.00000
 2395.98830   82.97286    0.00118    1.24869    1.00000
 2396.48830   81.14182    0.00120    1.48570    1.00000
