# LAS format log file from PETREL
# Project units are specified as depth units
#==================================================================
~Version information
VERS.   2.0:
WRAP.   NO:
#==================================================================
~Well
STRT .m      1467.4883000 :
STOP .m      2627.9883000 :
STEP .m     0.50000000 :
NULL .        -999.250000 :
COMP.           : COMPANY
WELL.  B2   : WELL
FLD.            : FIELD
LOC.            : LOCATION
SRVC.           : SERVICE COMPANY
DATE.  2024-10-09 18:19:32   : Log Export Date {yyyy-MM-dd HH:mm:ss}
PROV.           : PROVINCE
UWI.      : UNIQUE WELL ID
API.            : API NUMBER
#==================================================================
~Curve
DEPT .m                   : DEPTH
Gamma .gAPI               : Gamma
Porosity .m3/m3           : Porosity
Resistivity .ohm.m        : Resistivity
LITH ._                   : LITH
~Parameter
#==================================================================
~Ascii
# ...
 2039.48830  122.13928    0.00178    0.03034    2.00000
 2039.98830  126.73442    0.00176    0.00864    2.00000
 2040.48830  127.68534    0.00175    0.00500    2.00000
 2040.98830  128.54875    0.00174    0.00246    2.00000
 2041.48830  128.95297    0.00174    0.00788    2.00000
 2041.98830  129.34616    0.00175    0.01642    2.00000
 2042.48830  125.87198    0.00179    0.03294    2.00000
 2042.98830  122.30495    0.00179    0.05637    2.00000
 2043.48830  125.24568    0.00176    0.05297    2.00000
 2043.98830  128.34270    0.00177    0.04665    2.00000
 2044.48830  123.58974    0.00181    0.02097    2.00000
 2044.98830  118.64829    0.00181    0.00617    2.00000
 2045.48830  124.42706    0.00175    0.00672    2.00000
 2045.98830  130.46326    0.00174    0.00727    2.00000
 2046.48830  128.10567    0.00176    0.00857    2.00000
 2046.98830  125.54652    0.00175    0.01037    2.00000
 2047.48830  130.15324    0.00171    0.00538    2.00000
 2047.98830  134.93205    0.00172    0.00165    2.00000
 2048.48830  126.81013    0.00180    0.00330    2.00000
 2048.98830  118.37843    0.00183    0.00579    2.00000
 2049.48830  120.74658    0.00180    0.01066    2.00000
 2049.98830  123.37406    0.00181    0.01657    2.00000
 2050.48830  118.84560    0.00186    0.03654    2.00000
 2050.98830  114.14530    0.00188    0.06497    2.00000
 2051.48830  114.64776    0.00187    0.12867    2.00000
 2051.98830  115.27515    0.00185    0.21954    2.00000
 2052.48830  119.24000    0.00181    0.08468    2.00000
 2052.98830  123.28498    0.00181    0.00922    2.00000
 2053.48830  120.49359    0.00183    0.02338    2.00000
 2053.98830  117.53803    0.00186    0.04602    2.00000
 2054.48830  115.65793    0.00187    0.02452    2.00000
 2054.98830  113.80366    0.00186    0.00973    2.00000
 2055.48830  118.07194    0.00182    0.01767    2.00000
 2055.98830  122.48724    0.00183    0.02757    2.00000
 2056.48830  116.09643    0.00189    0.04682    2.00000
 2056.98830  109.44613    0.00190    0.07383    2.00000
 2057.48830  114.12976    0.00186    0.05029    2.00000
 2057.98830  119.08555    0.00184    0.02831    2.00000
 2058.48830  117.22519    0.00186    0.03155    2.00000
 2058.98830  115.20114    0.00187    0.03580    2.00000
 2059.48830  114.85167    0.00187    0.02532    2.00000
 2059.98830  114.54241    0.00187    0.01659    2.00000
 2060.48830  116.14275    0.00185    0.01594    2.00000
 2060.98830  117.78895    0.00183    0.01565    2.00000
 2061.48830  121.74055    0.00179    0.02175    2.00000
 2061.98830  125.74751    0.00175    0.02955    2.00000
 2062.48830  130.53362    0.00170    0.01185    2.00000
 2062.98830  135.33844    0.00171    0.00147    2.00000
 2063.48830  128.11200    0.00178    0.00473    2.00000
 2063.98830  120.59665    0.00182    0.01023    2.00000
 2064.48830  121.27248    0.00181    0.01169    2.00000
 2064.98830  122.14501    0.00182    0.01274    2.00000
 2065.48830  117.77157    0.00187    0.03227    2.00000
 2065.98830  113.27216    0.00184    0.06501    2.00000
 2066.48830  123.84912    0.00174    0.02849    2.00000
 2066.98830  134.78812    0.00171    0.00395    2.00000
 2067.48830  128.50452    0.00178    0.01050    2.00000
 2067.98830  121.80736    0.00179    0.02153    2.00000
 2068.48830  125.42781    0.00176    0.01247    2.00000
 2068.98830  129.29602    0.00173    0.00526    2.00000
 2069.48830  130.59596    0.00172    0.00629    2.00000
 2069.98830  131.83424    0.00171    0.00757    2.00000
 2070.48830  131.79366    0.00171    0.00795    2.00000
 2070.98830  131.72237    0.00176    0.00786    2.00000
 2071.48830  122.19478    0.00185    0.02460    2.00000
 2071.98830  112.44013    0.00187    0.05219    2.00000
 2072.48830  117.36585    0.00182    0.03341    2.00000
 2072.98830  122.64408    0.00180    0.01670    2.00000
 2073.48830  122.18135    0.00181    0.02035    2.00000
 2073.98830  121.58076    0.00178    0.02582    2.00000
 2074.48830  127.72079    0.00172    0.01563    2.00000
 2074.98830  134.02267    0.00172    0.00677    2.00000
 2075.48830  128.97462    0.00176    0.01938    2.00000
 2075.98830  123.65403    0.00180    0.03890    2.00000
 2076.48830  122.29196    0.00181    0.05999    2.00000
 2076.98830  121.02494    0.00181    0.08657    2.00000
 2077.48830  122.75209    0.00179    0.03506    2.00000
 2077.98830  124.55114    0.00199    0.00426    2.00000
 2078.48830   95.74899    0.00242    0.22470    3.00000
 2078.98830   66.21202    0.00267    0.66084    3.00000
 2079.48830   56.76170    0.00275    1.61752    3.00000
 2079.98830   47.79372    0.00271    3.17373    3.00000
 2080.48830   48.17178    0.00257    2.67541    3.00000
 2080.98830   48.77425    0.00252    1.93945    3.00000
 2081.48830   51.24644    0.00257    1.98684    3.00000
 2081.98830   53.76352    0.00265    2.00984    3.00000
 2082.48830   50.14321    0.00275    4.40175    3.00000
 2082.98830   46.37551    0.00276    8.08146    3.00000
 2083.48830   47.55531    0.00267    6.68419    3.00000
 2083.98830   48.85390    0.00266    4.88935    3.00000
 2084.48830   48.22542    0.00272    4.12094    3.00000
 2084.98830   47.55066    0.00258    4.10955    3.00000
 2085.48830   53.53922    0.00222    5.48385    3.00000
 2085.98830   59.68778    0.00206    6.26843    2.00000
 2086.48830   74.06461    0.00209    2.99213    2.00000
 2086.98830   88.63902    0.00216    0.91178    2.00000
 2087.48830   80.15981    0.00224    1.63650    3.00000
 2087.98830   71.12701    0.00234    2.51753    3.00000
 2088.48830   65.98742    0.00247    2.03050    3.00000
 2088.98830   60.94132    0.00243    1.86996    3.00000
 2089.48830   75.59332    0.00221    1.33990    3.00000
 2089.98830   90.71835    0.00215    0.67232    2.00000
 2090.48830   80.80171    0.00224    0.73149    3.00000
 2090.98830   70.28374    0.00227    0.85677    3.00000
 2091.48830   74.50198    0.00223    0.80826    3.00000
 2091.98830   79.07407    0.00218    0.75915    2.00000
 2092.48830   84.83001    0.00213    0.63302    2.00000
 2092.98830   90.61438    0.00224    0.43064    3.00000
 2093.48830   75.92435    0.00252    1.39759    3.00000
 2093.98830   60.74266    0.00255    3.18933    3.00000
 2094.48830   71.37212    0.00230    2.70137    3.00000
 2094.98830   82.62137    0.00219    1.79514    2.00000
 2095.48830   79.72514    0.00222    0.93722    3.00000
 2095.98830   76.48923    0.00229    0.35291    3.00000
 2096.48830   71.52653    0.00240    0.92456    3.00000
 2096.98830   66.52235    0.00239    1.92458    3.00000
 2097.48830   75.22144    0.00224    1.28479    3.00000
 2097.98830   84.24960    0.00215    0.62449    2.00000
 2098.48830   85.59802    0.00214    0.39792    2.00000
 2098.98830   86.76202    0.00222    0.20546    3.00000
 2099.48830   76.72959    0.00239    2.26691    3.00000
 2099.98830   66.42829    0.00238    6.93442    3.00000
 2100.48830   78.91095    0.00219    2.58749    2.00000
 2100.98830   91.94072    0.00209    0.07708    2.00000
 2101.48830   91.23348    0.00210    0.38079    2.00000
 2101.98830   90.19638    0.00212    0.98173    2.00000
 2102.48830   87.63010    0.00214    0.60128    2.00000
 2102.98830   85.02710    0.00218    0.29965    2.00000
 2103.48830   79.23573    0.00223    0.58338    3.00000
 2103.98830   73.36779    0.00223    1.01488    3.00000
 2104.48830   80.09962    0.00216    0.80938    2.00000
 2104.98830   87.13401    0.00211    0.59216    2.00000
 2105.48830   91.06567    0.00208    0.45780    2.00000
 2105.98830   94.92283    0.00206    0.33112    2.00000
 2106.48830   94.87037    0.00206    0.24601    2.00000
 2106.98830   94.72402    0.00223    0.14612    3.00000
 2107.48830   76.21967    0.00258    1.05086    3.00000
 2107.98830   57.27448    0.00262    2.94262    3.00000
 2108.48830   69.22276    0.00233    3.40383    3.00000
 2108.98830   81.91287    0.00216    3.50075    2.00000
 2109.48830   86.71192    0.00207    2.20731    2.00000
 2109.98830   91.32148    0.00199    1.07741    2.00000
 2110.48830   91.72910    0.00199    0.54733    2.00000
