# LAS format log file from PETREL
# Project units are specified as depth units
#==================================================================
~Version information
VERS.   2.0:
WRAP.   NO:
#==================================================================
~Well
STRT .m      1467.4883000 :
STOP .m      2627.9883000 :
STEP .m     0.50000000 :
NULL .        -999.250000 :
COMP.           : COMPANY
WELL.  B2   : WELL
FLD.            : FIELD
LOC.            : LOCATION
SRVC.           : SERVICE COMPANY
DATE.  2024-10-09 18:19:32   : Log Export Date {yyyy-MM-dd HH:mm:ss}
PROV.           : PROVINCE
UWI.      : UNIQUE WELL ID
API.            : API NUMBER
#==================================================================
~Curve
DEPT .m                   : DEPTH
Gamma .gAPI               : Gamma
Porosity .m3/m3           : Porosity
Resistivity .ohm.m        : Resistivity
LITH ._                   : LITH
~Parameter
#==================================================================
~Ascii
# ...
 2468.48830   86.26193    0.00111    3.41560    1.00000
 2468.98830   92.05970    0.00116    0.64517    1.00000
 2469.48830   77.97332    0.00131    3.75058    1.00000
 2469.98830   63.40947    0.00130   10.41241    1.00000
 2470.48830   78.61672    0.00114    4.73398    1.00000
 2470.98830   94.53888    0.00108    0.34540    1.00000
 2471.48830   90.01788    0.00113    0.82372    1.00000
 2471.98830   85.00598    0.00125    1.35155    1.00000
 2472.48830   70.87199    0.00145    5.21667    1.00000
 2472.98830   56.51896    0.00146   12.74205    1.00000
 2473.48830   68.59940    0.00128    5.91435    1.00000
 2473.98830   81.31458    0.00120    0.51014    1.00000
 2474.48830   79.29136    0.00122    0.84543    1.00000
 2474.98830   76.91422    0.00118    1.50096    1.00000
 2475.48830   72.40319    0.00109    7.73544    1.00000
 2475.98830   67.84093    0.00109   18.25811    1.00000
 2476.48830   72.78889    0.00117    8.16988    1.00000
 2476.98830   77.96523    0.00121    2.75595    1.00000
 2477.48830   78.79397    0.00121    6.08777    1.00000
 2477.98830   79.51831    0.00117   11.71695    1.00000
 2478.48830   86.43466    0.00111   16.25471    1.00000
 2478.98830   93.49971    0.00112   18.83274    1.00000
 2479.48830   83.28002    0.00122   10.26068    1.00000
 2479.98830   72.64528    0.00122    5.84745    1.00000
 2480.48830   82.90355    0.00112    4.73738    1.00000
 2480.98830   93.66353    0.00108    3.16361    1.00000
 2481.48830   91.38564    0.00110    1.78560    1.00000
 2481.98830   88.79468    0.00115    0.79832    1.00000
 2482.48830   81.21138    0.00122    2.61200    1.00000
 2482.98830   73.50821    0.00128    5.34576    1.00000
 2483.48830   67.96348    0.00131    9.02160    1.00000
 2483.98830   62.47058    0.00129   14.66227    1.00000
 2484.48830   72.34750    0.00121    9.17406    1.00000
 2484.98830   82.59348    0.00115    4.10660    1.00000
 2485.48830   87.30914    0.00111    3.25064    1.00000
 2485.98830   91.89201    0.00111    2.27585    1.00000
 2486.48830   86.51162    0.00116    2.29465    1.00000
 2486.98830   80.89198    0.00117    2.51896    1.00000
 2487.48830   84.27878    0.00114    1.68309    1.00000
 2487.98830   87.88185    0.00116    0.86693    1.00000
 2488.48830   80.47474    0.00123    9.93810    1.00000
 2488.98830   72.80324    0.00129   27.07850    1.00000
 2489.48830   68.31596    0.00135   13.92688    1.00000
 2489.98830   63.90516    0.00136    5.66573    1.00000
 2490.48830   66.42061    0.00133    8.51129    1.00000
 2490.98830   69.10239    0.00129   12.62297    1.00000
 2491.48830   73.46489    0.00124    5.95028    1.00000
 2491.98830   77.86775    0.00122    1.34902    1.00000
 2492.48830   78.29772    0.00121    1.39883    1.00000
 2492.98830   78.63229    0.00121    1.53841    1.00000
 2493.48830   79.74901    0.00120    1.03199    1.00000
 2493.98830   80.88452    0.00119    0.60347    1.00000
 2494.48830   81.05137    0.00119    9.69489    1.00000
 2494.98830   81.19496    0.00121   29.12711    1.00000
 2495.48830   76.16440    0.00126   11.13883    1.00000
 2495.98830   71.00958    0.00117    2.29600    1.00000
 2496.48830   69.52002    0.00096   22.35557    1.00000
 2496.98830   68.11847    0.00091   66.06250    1.00000
 2497.48830   78.46787    0.00104   59.47437    1.00000
 2497.98830   89.09945    0.00114   57.30185    1.00000
 2498.48830   82.85698    0.00120   31.96654    1.00000
 2498.98830   76.20931    0.00121   16.71110    1.00000
 2499.48830   80.75128    0.00117    5.92625    1.00000
 2499.98830   85.56196    0.00123    0.33099    1.00000
 2500.48830   75.03462    0.00139    1.32519    1.00000
 2500.98830   64.13898    0.00138    3.48951    1.00000
 2501.48830   77.64732    0.00119    2.58248    1.00000
 2501.98830   91.74167    0.00110    1.13404    1.00000
 2502.48830   89.03500    0.00113    1.42353    1.00000
 2502.98830   85.92489    0.00116    1.75979    1.00000
 2503.48830   82.13276    0.00120    2.01352    1.00000
 2503.98830   78.32425    0.00120    2.40986    1.00000
 2504.48830   81.88108    0.00116    4.18687    1.00000
 2504.98830   85.61478    0.00117    6.18847    1.00000
 2505.48830   81.02453    0.00121    3.47867    1.00000
 2505.98830   76.23438    0.00124    1.66646    1.00000
 2506.48830   75.96845    0.00124    3.38042    1.00000
 2506.98830   75.81116    0.00120    6.21030    1.00000
 2507.48830   83.44363    0.00113    4.98165    1.00000
 2507.98830   91.26315    0.00114    3.06264    1.00000
 2508.48830   80.95145    0.00124    2.93649    1.00000
 2508.98830   70.20436    0.00124    3.39179    1.00000
 2509.48830   80.84306    0.00114    2.63469    1.00000
 2509.98830   91.99532    0.00112    1.50712    1.00000
 2510.48830   84.16489    0.00120    2.25838    1.00000
 2510.98830   75.87862    0.00122    3.41914    1.00000
 2511.48830   80.18471    0.00118   31.62131    1.00000
 2511.98830   84.79317    0.00118   88.43490    2.00000
 2512.48830   80.16856    0.00122   28.26054    1.00000
 2512.98830   75.32224    0.00122    2.03999    1.00000
 2513.48830   80.30262    0.00117    2.78661    1.00000
 2513.98830   85.51897    0.00113    4.09940    1.00000
 2514.48830   88.92596    0.00110    4.50991    1.00000
 2514.98830   92.28951    0.00110    4.66372    1.00000
 2515.48830   89.68195    0.00112    1.78920    1.00000
 2515.98830   86.93102    0.00113    0.29698    1.00000
 2516.48830   87.80811    0.00112    0.85368    1.00000
 2516.98830   88.77232    0.00116    1.62967    1.00000
 2517.48830   79.36364    0.00125    1.62814    1.00000
 2517.98830   69.70588    0.00126    1.84110    1.00000
 2518.48830   77.16306    0.00119    1.40276    1.00000
 2518.98830   85.03120    0.00118    0.85082    1.00000
 2519.48830   79.57015    0.00123    1.31971    1.00000
 2519.98830   73.78902    0.00125    1.99343    1.00000
 2520.48830   76.29335    0.00122    2.22466    1.00000
 2520.98830   78.99664    0.00115    2.68543    1.00000
 2521.48830   91.41531    0.00103    4.28317    1.00000
 2521.98830  104.06728    0.00099    5.77321    1.00000
 2522.48830  100.13363    0.00103    6.91380    1.00000
 2522.98830   95.80172    0.00109    7.77640    1.00000
 2523.48830   88.05258    0.00116    3.78033    1.00000
 2523.98830   80.22138    0.00118    1.54479    1.00000
 2524.48830   83.18227    0.00115    1.17990    1.00000
 2524.98830   86.40231    0.00116    0.81356    1.00000
 2525.48830   81.95130    0.00120    1.55175    1.00000
 2525.98830   77.31609    0.00120    2.68531    1.00000
 2526.48830   82.09360    0.00116    1.99068    1.00000
 2526.98830   87.09714    0.00115    1.21699    1.00000
 2527.48830   83.85546    0.00118    4.27450    1.00000
 2527.98830   80.41579    0.00117    9.77910    1.00000
 2528.48830   86.18504    0.00111    4.81253    1.00000
 2528.98830   92.17542    0.00110    1.10685    1.00000
 2529.48830   89.31949    0.00113    0.67034    1.00000
 2529.98830   86.25114    0.00112    0.40878    1.00000
 2530.48830   90.32148    0.00108    0.67910    1.00000
 2530.98830   94.56324    0.00108    0.99396    1.00000
 2531.48830   91.40199    0.00111    1.19176    1.00000
 2531.98830   88.06297    0.00113    1.42552    1.00000
 2532.48830   87.51329    0.00113    1.23309    1.00000
 2532.98830   87.03060    0.00113    1.06576    1.00000
 2533.48830   88.49013    0.00111    1.52029    1.00000
 2533.98830   89.99630    0.00115    1.90360    1.00000
 2534.48830   81.26976    0.00123    2.70554    1.00000
 2534.98830   72.29750    0.00127    3.81411    1.00000
 2535.48830   73.49643    0.00125    1.80324    1.00000
 2535.98830   74.93960    0.00122    0.50472    1.00000
 2536.48830   81.32948    0.00116    0.68532    1.00000
 2536.98830   87.83813    0.00114    0.88603    1.00000
 2537.48830   85.61639    0.00116    1.37667    1.00000
 2537.98830   83.18500    0.00117    1.98620    1.00000
 2538.48830   82.54942    0.00118    4.17960    1.00000
 2538.98830   81.95696    0.00118    7.19936    1.00000
 2539.48830   81.41474    0.00119    2.92809    1.00000
