# LAS format log file from PETREL
# Project units are specified as depth units
#==================================================================
~Version information
VERS.   2.0:
WRAP.   NO:
#==================================================================
~Well
STRT .m      1467.4883000 :
STOP .m      2627.9883000 :
STEP .m     0.50000000 :
NULL .        -999.250000 :
COMP.           : COMPANY
WELL.  B2   : WELL
FLD.            : FIELD
LOC.            : LOCATION
SRVC.           : SERVICE COMPANY
DATE.  2024-10-09 18:19:32   : Log Export Date {yyyy-MM-dd HH:mm:ss}
PROV.           : PROVINCE
UWI.      : UNIQUE WELL ID
API.            : API NUMBER
#==================================================================
~Curve
DEPT .m                   : DEPTH
Gamma .gAPI               : Gamma
Porosity .m3/m3           : Porosity
Resistivity .ohm.m        : Resistivity
LITH ._                   : LITH
~Parameter
#==================================================================
~Ascii
# ...
 1681.98830   87.05812    0.00217    0.07915    2.00000
 1682.48830   78.48682    0.00225    0.23240    3.00000
 1682.98830   69.60508    0.00227    0.48598    3.00000
 1683.48830   75.26945    0.00221    0.32451    3.00000
 1683.98830   81.28313    0.00216    0.18072    2.00000
 1684.48830   86.19867    0.00212    0.33269    2.00000
 1684.98830   91.08784    0.00212    0.52289    2.00000
 1685.48830   84.76229    0.00219    0.46807    2.00000
 1685.98830   78.16743    0.00220    0.43309    3.00000
 1686.48830   81.38393    0.00217    0.44680    2.00000
 1686.98830   84.83602    0.00216    0.45118    2.00000
 1687.48830   83.17712    0.00218    0.55219    2.00000
 1687.98830   81.39548    0.00218    0.67131    2.00000
 1688.48830   81.90735    0.00218    0.55118    2.00000
 1688.98830   82.47430    0.00219    0.43044    2.00000
 1689.48830   79.62829    0.00222    1.18574    3.00000
 1689.98830   76.70032    0.00222    2.36152    3.00000
 1690.48830   77.84074    0.00221    2.59488    3.00000
 1690.98830   79.07886    0.00220    2.80992    3.00000
 1691.48830   80.18400    0.00219    1.31114    2.00000
 1691.98830   81.28593    0.00221    0.34371    3.00000
 1692.48830   76.90037    0.00225   38.82312    3.00000
 1692.98830   72.38303    0.00225  145.23799    3.00000
 1693.48830   77.45719    0.00220   48.80660    3.00000
 1693.98830   82.76167    0.00216    1.90099    2.00000
 1694.48830   84.64532    0.00215    0.73833    2.00000
 1694.98830   86.44683    0.00215    0.20436    2.00000
 1695.48830   83.29618    0.00218    1.76156    2.00000
 1695.98830   80.02660    0.00219    4.99117    2.00000
 1696.48830   82.17475    0.00217    4.77001    2.00000
 1696.98830   84.45300    0.00218    4.29717    2.00000
 1697.48830   79.40507    0.00223    4.29719    3.00000
 1697.98830   74.18121    0.00223    4.51567    3.00000
 1698.48830   79.28603    0.00218    2.07949    2.00000
 1698.98830   84.63888    0.00219    0.47042    2.00000
 1699.48830   78.26881    0.00225    1.14804    3.00000
 1699.98830   71.61723    0.00227    2.20720    3.00000
 1700.48830   66.73101    0.00226    2.54012    3.00000
 1700.98830   61.88719    0.00223    2.93410    3.00000
 1701.48830   73.27538    0.00218    1.88910    2.00000
 1701.98830   85.05335    0.00218    0.95723    2.00000
 1702.48830   79.44058    0.00223    0.51068    3.00000
 1702.98830   73.41020    0.00222    0.23414    3.00000
 1703.48830   82.02735    0.00214    0.20567    2.00000
 1703.98830   90.99623    0.00213    0.16656    2.00000
 1704.48830   80.25318    0.00221    0.38748    3.00000
 1704.98830   69.03678    0.00224    0.71383    3.00000
 1705.48830   72.89584    0.00223    0.82788    3.00000
 1705.98830   77.11692    0.00223    0.92966    3.00000
 1706.48830   75.17886    0.00225    1.97859    3.00000
 1706.98830   73.09290    0.00225    3.50880    3.00000
 1707.48830   76.48432    0.00222    1.71160    3.00000
 1707.98830   80.00728    0.00222    0.47224    3.00000
 1708.48830   76.19128    0.00225    1.28354    3.00000
 1708.98830   72.19905    0.00225    2.61517    3.00000
 1709.48830   76.34903    0.00221    1.74048    3.00000
 1709.98830   80.69453    0.00220    0.95491    2.00000
 1710.48830   68.79303    0.00221   12.89450    3.00000
 1710.98830   56.50139    0.00220   39.57101    3.00000
 1711.48830   68.93701    0.00219   16.14767    2.00000
 1711.98830   81.96641    0.00223    2.37054    3.00000
 1712.48830   72.41811    0.00233    1.77468    3.00000
 1712.98830   62.32765    0.00234    1.53621    3.00000
 1713.48830   69.23460    0.00227    1.24740    3.00000
 1713.98830   76.54970    0.00223    0.93508    3.00000
 1714.48830   76.85786    0.00223    1.90879    3.00000
 1714.98830   76.99775    0.00218    3.43242    2.00000
 1715.48830   87.01456    0.00209    1.60277    2.00000
 1715.98830   97.26856    0.00208    0.31489    2.00000
 1716.48830   88.61394    0.00216    0.72742    2.00000
 1716.98830   79.50526    0.00224    1.30756    3.00000
 1717.48830   71.92625    0.00233    1.32604    3.00000
 1717.98830   64.38396    0.00232    1.44933    3.00000
 1718.48830   74.36899    0.00221    0.84951    3.00000
 1718.98830   84.77489    0.00216    0.33679    2.00000
 1719.48830   83.71584    0.00217    0.40913    2.00000
 1719.98830   82.38148    0.00219    0.49705    2.00000
 1720.48830   79.31169    0.00222    0.45623    3.00000
 1720.98830   76.20023    0.00221    0.43094    3.00000
 1721.48830   81.04517    0.00217    0.30196    2.00000
 1721.98830   86.08115    0.00215    0.18348    2.00000
 1722.48830   84.61467    0.00216    0.36760    2.00000
 1722.98830   82.99204    0.00217    0.62605    2.00000
 1723.48830   82.74873    0.00217    0.33059    2.00000
 1723.98830   82.53854    0.00211    0.13065    2.00000
 1724.48830   74.88596    0.00198    0.60220    2.00000
 1724.98830   67.05467    0.00197    1.40045    2.00000
 1725.48830   75.07832    0.00210    1.03723    2.00000
 1725.98830   83.48270    0.00216    0.79241    2.00000
 1726.48830   84.49529    0.00215    0.64328    2.00000
 1726.98830   85.33038    0.00217    0.49664    2.00000
 1727.48830   75.45267    0.00222    2.48994    3.00000
 1727.98830   65.31770    0.00216    6.56736    2.00000
 1728.48830   87.37509    0.00200    3.30261    2.00000
 1728.98830  110.20552    0.00197    0.64830    2.00000
 1729.48830   97.80064    0.00209    0.47475    2.00000
 1729.98830   84.54967    0.00219    0.37821    2.00000
 1730.48830   77.65796    0.00225    0.32622    3.00000
 1730.98830   70.91895    0.00229    0.28937    3.00000
 1731.48830   70.42107    0.00229    0.61869    3.00000
 1731.98830   70.07307    0.00227    1.10435    3.00000
 1732.48830   73.83840    0.00224    1.71472    3.00000
 1732.98830   77.70251    0.00223    2.43113    3.00000
 1733.48830   76.66988    0.00224    2.16792    3.00000
 1733.98830   75.51965    0.00224    1.91373    3.00000
 1734.48830   75.92623    0.00223    4.58743    3.00000
 1734.98830   76.37020    0.00222    8.63957    3.00000
 1735.48830   79.10136    0.00219    3.34288    2.00000
 1735.98830   81.88744    0.00215    0.41708    2.00000
 1736.48830   87.76208    0.00210    0.22396    2.00000
 1736.98830   93.71088    0.00214    0.09071    2.00000
 1737.48830   81.37833    0.00228    0.34062    3.00000
 1737.98830   68.60677    0.00237    0.73231    3.00000
 1738.48830   65.62269    0.00243    0.82607    3.00000
 1738.98830   62.87363    0.00242    0.97252    3.00000
 1739.48830   67.01679    0.00233    0.74543    3.00000
 1739.98830   71.32547    0.00227    0.50691    3.00000
 1740.48830   73.53107    0.00225    0.79204    3.00000
 1740.98830   75.68619    0.00223    1.16907    3.00000
 1741.48830   78.48440    0.00220    1.63794    2.00000
 1741.98830   81.29806    0.00217    2.20669    2.00000
 1742.48830   84.60504    0.00214    1.10504    2.00000
 1742.98830   87.92387    0.00213    0.33841    2.00000
 1743.48830   87.52467    0.00213    0.23498    2.00000
 1743.98830   87.03619    0.00212    0.16075    2.00000
 1744.48830   90.40466    0.00209    0.52906    2.00000
 1744.98830   93.86575    0.00212    1.07246    2.00000
 1745.48830   81.80554    0.00224    2.96494    3.00000
 1745.98830   69.37262    0.00225    6.03496    3.00000
 1746.48830   78.45388    0.00217    2.17978    2.00000
 1746.98830   88.05177    0.00213    0.12461    2.00000
 1747.48830   87.43732    0.00213    0.18654    2.00000
 1747.98830   86.57766    0.00217    0.28362    2.00000
 1748.48830   80.39631    0.00222    0.23055    3.00000
 1748.98830   74.08717    0.00222    0.19462    3.00000
 1749.48830   81.80146    0.00214    0.83500    2.00000
 1749.98830   89.85251    0.00213    1.93947    2.00000
 1750.48830   85.09556    0.00217    1.36116    2.00000
 1750.98830   80.03105    0.00224    0.85997    3.00000
 1751.48830   71.12445    0.00232    0.94943    3.00000
 1751.98830   62.12560    0.00237    1.07771    3.00000
 1752.48830   60.54689    0.00239    2.55115    3.00000
 1752.98830   59.14636    0.00237    4.82503    3.00000
