# LAS format log file from PETREL
# Project units are specified as depth units
#==================================================================
~Version information
VERS.   2.0:
WRAP.   NO:
#==================================================================
~Well
STRT .m      1467.4883000 :
STOP .m      2627.9883000 :
STEP .m     0.50000000 :
NULL .        -999.250000 :
COMP.           : COMPANY
WELL.  B2   : WELL
FLD.            : FIELD
LOC.            : LOCATION
SRVC.           : SERVICE COMPANY
DATE.  2024-10-09 18:19:32   : Log Export Date {yyyy-MM-dd HH:mm:ss}
PROV.           : PROVINCE
UWI.      : UNIQUE WELL ID
API.            : API NUMBER
#==================================================================
~Curve
DEPT .m                   : DEPTH
Gamma .gAPI               : Gamma
Porosity .m3/m3           : Porosity
Resistivity .ohm.m        : Resistivity
LITH ._                   : LITH
~Parameter
#==================================================================
~Ascii
 1467.48830    -999.25    -999.25    -999.25    -999.25
 1467.98830    -999.25    -999.25    -999.25    -999.25
 1468.48830   69.49101    0.00227    7.04211    3.00000
 1468.98830   65.88683    0.00224    2.48238    3.00000
 1469.48830   75.46595    0.00218    1.56961    2.00000
 1469.98830   85.36164    0.00217    0.81943    2.00000
 1470.48830   81.18484    0.00221    0.67487    3.00000
 1470.98830   76.67012    0.00220    0.58753    2.00000
 1471.48830   71.18448    0.00214    1.41467    2.00000
 1471.98830   65.67551    0.00215    2.52761    2.00000
 1472.48830   68.22247    0.00224    2.93745    3.00000
 1472.98830   70.96285    0.00222    3.66763    3.00000
 1473.48830   83.90408    0.00210    1.51839    2.00000
 1473.98830   97.09026    0.00205    0.17259    2.00000
 1474.48830   95.68335    0.00206    1.00726    2.00000
 1474.98830   93.92601    0.00206    2.64607    2.00000
 1475.48830   94.95699    0.00205    1.35058    2.00000
 1475.98830   96.05493    0.00210    0.41635    2.00000
 1476.48830   84.32995    0.00221    3.34441    3.00000
 1476.98830   72.29705    0.00227    9.03892    3.00000
 1477.48830   72.66367    0.00226    5.27423    3.00000
 1477.98830   73.32806    0.00220    2.49209    3.00000
 1478.48830   70.24980    0.00209    4.26583    2.00000
 1478.98830   67.08168    0.00203    6.59455    2.00000
 1479.48830   82.47272    0.00203    2.21150    2.00000
 1479.98830   98.30942    0.00207    0.12630    2.00000
 1480.48830   88.99957    0.00216    0.54014    2.00000
 1480.98830   79.08586    0.00218    1.33245    2.00000
 1481.48830   84.86625    0.00212    0.87620    2.00000
 1481.98830   91.02351    0.00208    0.46846    2.00000
 1482.48830   94.93713    0.00204    0.43745    2.00000
 1482.98830   98.79687    0.00207    0.38649    2.00000
 1483.48830   89.15054    0.00216    7.28652    2.00000
 1483.98830   79.17989    0.00222   22.13926    3.00000
 1484.48830   75.62119    0.00226    9.30783    3.00000
 1484.98830   72.21647    0.00224    1.95111    3.00000
 1485.48830   79.64949    0.00217    1.19432    2.00000
 1485.98830   87.34276    0.00215    0.60340    2.00000
 1486.48830   82.30747    0.00220    1.52712    3.00000
 1486.98830   76.96654    0.00221    2.99197    3.00000
 1487.48830   81.59224    0.00216    1.90157    2.00000
 1487.98830   86.45728    0.00215    0.94273    2.00000
 1488.48830   78.04175    0.00219    0.55873    2.00000
 1488.98830   69.30732    0.00220    0.29143    3.00000
 1489.48830   74.02650    0.00221    0.58870    3.00000
 1489.98830   79.06875    0.00221    1.01158    3.00000
 1490.48830   79.46816    0.00220    3.47361    3.00000
 1490.98830   79.75609    0.00234    6.53520    3.00000
 1491.48830   74.46326    0.00263    3.16169    3.00000
 1491.98830   69.03642    0.00263    1.62171    3.00000
 1492.48830   75.05764    0.00234    2.93073    3.00000
 1492.98830   81.35376    0.00219    4.59387    2.00000
 1493.48830   80.42669    0.00220    1.52103    2.00000
 1493.98830   79.32616    0.00218    0.09309    2.00000
 1494.48830   85.49982    0.00212    0.12787    2.00000
 1494.98830   91.84816    0.00208    0.18702    2.00000
 1495.48830   92.47141    0.00208    0.42715    2.00000
 1495.98830   92.95720    0.00210    0.75164    2.00000
 1496.48830   87.75272    0.00215    0.41426    2.00000
 1496.98830   82.41161    0.00216    0.18522    2.00000
 1497.48830   86.02878    0.00212    0.63686    2.00000
 1497.98830   89.86106    0.00212    1.38596    2.00000
 1498.48830   87.97530    0.00213    3.10456    2.00000
 1498.98830   85.95223    0.00217    5.38605    2.00000
 1499.48830   80.42277    0.00222    2.79354    3.00000
 1499.98830   74.80910    0.00222    1.11294    3.00000
 1500.48830   80.83475    0.00216    0.49872    2.00000
 1500.98830   87.13990    0.00213    0.11450    2.00000
 1501.48830   88.07988    0.00212    0.15543    2.00000
 1501.98830   88.89103    0.00211    0.21227    2.00000
 1502.48830   89.50982    0.00211    0.14689    2.00000
 1502.98830   90.12399    0.00213    0.08881    2.00000
 1503.48830   85.50148    0.00217    0.32625    2.00000
 1503.98830   80.75323    0.00221    0.71260    3.00000
 1504.48830   77.79775    0.00223    2.25437    3.00000
 1504.98830   74.88532    0.00221    4.84414    3.00000
 1505.48830   82.01508    0.00215    3.26482    2.00000
 1505.98830   89.38600    0.00210    1.78645    2.00000
 1506.48830   91.01586    0.00209    0.78609    2.00000
 1506.98830   92.50786    0.00213    0.17503    2.00000
 1507.48830   82.02863    0.00223    0.62323    3.00000
 1507.98830   71.26194    0.00229    1.36644    3.00000
 1508.48830   70.29562    0.00229    3.34775    3.00000
 1508.98830   69.56464    0.00226    6.46809    3.00000
 1509.48830   77.64247    0.00218    2.36858    2.00000
 1509.98830   85.93183    0.00216    0.15763    2.00000
 1510.48830   82.16765    0.00220    0.29430    2.00000
 1510.98830   78.11402    0.00225    0.50201    3.00000
 1511.48830   70.46556    0.00231    1.27414    3.00000
 1511.98830   62.73078    0.00230    2.51217    3.00000
 1512.48830   72.86654    0.00221    2.06973    3.00000
 1512.98830   83.43142    0.00217    1.51825    2.00000
 1513.48830   82.69009    0.00218    2.28335    2.00000
 1513.98830   81.67726    0.00217    3.29354    2.00000
 1514.48830   84.36115    0.00214    1.79532    2.00000
 1514.98830   87.13380    0.00215    0.67455    2.00000
 1515.48830   84.03799    0.00218    0.63989    2.00000
 1515.98830   80.80125    0.00220    0.63103    2.00000
 1516.48830   79.51212    0.00221    0.76798    3.00000
 1516.98830   78.26974    0.00223    0.91564    3.00000
 1517.48830   75.87217    0.00225    0.62533    3.00000
 1517.98830   73.44686    0.00222    0.40878    3.00000
 1518.48830   82.66245    0.00213    0.19016    2.00000
 1518.98830   92.15757    0.00209    0.04249    2.00000
 1519.48830   90.29515    0.00211    0.10021    2.00000
 1519.98830   88.16000    0.00215    0.18388    2.00000
 1520.48830   82.13583    0.00221    0.88723    3.00000
 1520.98830   76.01826    0.00223    2.13519    3.00000
 1521.48830   77.50188    0.00221    1.53404    3.00000
 1521.98830   79.16801    0.00216    1.02647    2.00000
 1522.48830   88.70281    0.00207    1.35230    2.00000
 1522.98830   98.42656    0.00208    1.60244    2.00000
 1523.48830   86.46947    0.00220    0.70665    2.00000
 1523.98830   73.99177    0.00223    0.21932    3.00000
 1524.48830   78.75919    0.00219    0.15092    2.00000
 1524.98830   83.94073    0.00218    0.09325    2.00000
 1525.48830   80.29966    0.00221    0.22820    3.00000
 1525.98830   76.44673    0.00225    0.42347    3.00000
 1526.48830   73.12943    0.00228    0.90774    3.00000
 1526.98830   69.82500    0.00229    1.58940    3.00000
 1527.48830   70.67706    0.00228    1.61676    3.00000
 1527.98830   71.62894    0.00228    1.61760    3.00000
 1528.48830   71.40078    0.00228    1.75393    3.00000
 1528.98830   71.14429    0.00225    1.96091    3.00000
 1529.48830   77.95478    0.00219    2.06435    2.00000
 1529.98830   84.93497    0.00214    2.11899    2.00000
 1530.48830   86.59948    0.00213    0.89249    2.00000
 1530.98830   88.13633    0.00215    0.16425    2.00000
 1531.48830   81.57860    0.00222    0.21713    3.00000
 1531.98830   74.82648    0.00225    0.29578    3.00000
 1532.48830   74.16296    0.00226    0.36439    3.00000
 1532.98830   73.64563    0.00222    0.45641    3.00000
 1533.48830   81.46606    0.00215    0.82811    2.00000
 1533.98830   89.48669    0.00213    1.28364    2.00000
 1534.48830   85.44105    0.00217    3.60193    2.00000
 1534.98830   81.10564    0.00218    7.17217    2.00000
 1535.48830   82.12828    0.00217    2.36274    2.00000
 1535.98830   83.27957    0.00217    0.11279    2.00000
 1536.48830   82.68250    0.00218    0.13917    2.00000
 1536.98830   82.04344    0.00212    0.20642    2.00000
 1537.48830   95.11217    0.00199    0.09573    2.00000
 1537.98830  108.51008    0.00195    0.01694    2.00000
 1538.48830   86.58998    0.00200    0.23289    2.00000
