# LAS format log file from PETREL
# Project units are specified as depth units
#==================================================================
~Version information
VERS.   2.0:
WRAP.   NO:
#==================================================================
~Well
STRT .m      1467.4883000 :
STOP .m      2627.9883000 :
STEP .m     0.50000000 :
NULL .        -999.250000 :
COMP.           : COMPANY
WELL.  B2   : WELL
FLD.            : FIELD
LOC.            : LOCATION
SRVC.           : SERVICE COMPANY
DATE.  2024-10-09 18:19:32   : Log Export Date {yyyy-MM-dd HH:mm:ss}
PROV.           : PROVINCE
UWI.      : UNIQUE WELL ID
API.            : API NUMBER
#==================================================================
~Curve
DEPT .m                   : DEPTH
Gamma .gAPI               : Gamma
Porosity .m3/m3           : Porosity
Resistivity .ohm.m        : Resistivity
LITH ._                   : LITH
~Parameter
#==================================================================
~Ascii
# ...
 1753.48830   64.80880    0.00232    3.73859    3.00000
 1753.98830   70.64083    0.00224    2.70648    3.00000
 1754.48830   80.09445    0.00215    1.28167    2.00000
 1754.98830   89.63503    0.00214    0.29384    2.00000
 1755.48830   82.47088    0.00221    0.55799    3.00000
 1755.98830   74.90559    0.00223    0.95878    3.00000
 1756.48830   70.12907    0.00220    3.20814    3.00000
 1756.98830   65.41952    0.00218    6.95927    2.00000
 1757.48830   75.56281    0.00215    2.78100    2.00000
 1757.98830   86.06276    0.00213    0.39249    2.00000
 1758.48830   87.68707    0.00212    0.32774    2.00000
 1758.98830   89.09825    0.00213    0.28793    2.00000
 1759.48830   86.38139    0.00215    0.13786    2.00000
 1759.98830   83.56539    0.00214    0.04480    2.00000
 1760.48830   89.40544    0.00208    0.11613    2.00000
 1760.98830   95.45335    0.00211    0.21466    2.00000
 1761.48830   83.02511    0.00223    0.46120    3.00000
 1761.98830   70.15319    0.00228    0.81598    3.00000
 1762.48830   72.71132    0.00225    0.79595    3.00000
 1762.98830   75.63998    0.00221    0.77980    3.00000
 1763.48830   82.51380    0.00214    0.55622    2.00000
 1763.98830   89.48235    0.00211    0.34184    2.00000
 1764.48830   88.81006    0.00212    0.60579    2.00000
 1764.98830   87.95428    0.00211    0.97546    2.00000
 1765.48830   90.75645    0.00208    4.88412    2.00000
 1765.98830   93.64646    0.00210   11.66556    2.00000
 1766.48830   87.56434    0.00216    4.96079    2.00000
 1766.98830   81.26676    0.00218    1.15236    2.00000
 1767.48830   82.93970    0.00216    1.35432    2.00000
 1767.98830   84.80403    0.00213    1.67546    2.00000
 1768.48830   89.46693    0.00209    0.67221    2.00000
 1768.98830   94.19702    0.00217    0.08307    2.00000
 1769.48830   79.88666    0.00238    0.39709    3.00000
 1769.98830   65.11906    0.00243    0.99125    3.00000
 1770.48830   69.22529    0.00232    1.08056    3.00000
 1770.98830   73.78473    0.00224    1.12246    3.00000
 1771.48830   77.79157    0.00220    0.69838    3.00000
 1771.98830   81.78514    0.00221    0.34057    3.00000
 1772.48830   75.85712    0.00227    0.73276    3.00000
 1772.98830   69.69085    0.00225    1.36010    3.00000
 1773.48830   79.26727    0.00216    0.68132    2.00000
 1773.98830   89.22173    0.00214    0.17341    2.00000
 1774.48830   82.71663    0.00221    0.41739    3.00000
 1774.98830   75.81628    0.00223    0.79695    3.00000
 1775.48830   77.21027    0.00222    0.92781    3.00000
 1775.98830   78.80341    0.00220    1.06693    2.00000
 1776.48830   81.37738    0.00217    1.07132    2.00000
 1776.98830   83.97489    0.00217    1.04556    2.00000
 1777.48830   81.27410    0.00220    0.52845    3.00000
 1777.98830   78.44608    0.00223    0.18550    3.00000
 1778.48830   73.93408    0.00228    0.54912    3.00000
 1778.98830   69.38165    0.00226    1.17267    3.00000
 1779.48830   77.35434    0.00218    1.05471    2.00000
 1779.98830   85.62780    0.00216    0.86717    2.00000
 1780.48830   83.01644    0.00218    0.70898    2.00000
 1780.98830   80.14370    0.00220    0.57514    3.00000
 1781.48830   78.99367    0.00221    0.47363    3.00000
 1781.98830   77.88500    0.00219    0.39560    2.00000
 1782.48830   83.58689    0.00214    0.27689    2.00000
 1782.98830   89.45232    0.00211    0.16880    2.00000
 1783.48830   89.85621    0.00211    0.19880    2.00000
 1783.98830   90.12894    0.00215    0.22367    2.00000
 1784.48830   80.30072    0.00224    1.26928    3.00000
 1784.98830   70.22994    0.00230    3.13030    3.00000
 1785.48830   69.12305    0.00231    1.92316    3.00000
 1785.98830   68.23142    0.00229    1.00253    3.00000
 1786.48830   73.24438    0.00224   18.38321    3.00000
 1786.98830   78.39912    0.00220   60.49521    3.00000
 1787.48830   80.55764    0.00218   18.96839    2.00000
 1787.98830   82.64421    0.00218    0.47244    2.00000
 1788.48830   80.34022    0.00221    0.45380    3.00000
 1788.98830   77.93080    0.00230    0.51870    3.00000
 1789.48830   70.59643    0.00247    0.47659    3.00000
 1789.98830   63.14379    0.00247    0.50829    3.00000
 1790.48830   70.73952    0.00230    0.81389    3.00000
 1790.98830   78.69662    0.00219    1.19264    2.00000
 1791.48830   83.01208    0.00215    0.69827    2.00000
 1791.98830   87.24010    0.00210    0.31349    2.00000
 1792.48830   93.39234    0.00204    0.36631    2.00000
 1792.98830   99.59079    0.00202    0.42050    2.00000
 1793.48830   80.81100    0.00204    2.42634    2.00000
 1793.98830   61.43140    0.00208    5.94079    2.00000
 1794.48830   70.81894    0.00215    4.04411    2.00000
 1794.98830   80.89727    0.00220    2.57519    2.00000
 1795.48830   79.35237    0.00221    1.07622    3.00000
 1795.98830   77.52837    0.00221    0.23134    3.00000
 1796.48830   80.63431    0.00218    0.43016    2.00000
 1796.98830   83.85863    0.00217    0.71156    2.00000
 1797.48830   81.80103    0.00219    1.72751    2.00000
 1797.98830   79.61660    0.00216    3.34994    2.00000
 1798.48830   88.69284    0.00207    1.94591    2.00000
 1798.98830   98.03948    0.00208    0.71521    2.00000
 1799.48830   86.27806    0.00220    0.68786    2.00000
 1799.98830   74.00977    0.00224    0.73140    3.00000
 1800.48830   77.12470    0.00221    3.46324    3.00000
 1800.98830   80.60903    0.00226    7.89951    3.00000
 1801.48830   74.96756    0.00238    4.11068    3.00000
 1801.98830   69.10694    0.00241    1.84263    3.00000
 1802.48830   69.98945    0.00233    1.64023    3.00000
 1802.98830   71.03388    0.00227    1.43188    3.00000
 1803.48830   74.12665    0.00224    0.71019    3.00000
 1803.98830   77.26860    0.00226    0.21247    3.00000
 1804.48830   72.67278    0.00233    0.56700    3.00000
 1804.98830   67.89114    0.00230    1.18328    3.00000
 1805.48830   77.75272    0.00218    0.54502    2.00000
 1805.98830   87.96592    0.00212    0.10017    2.00000
 1806.48830   89.27465    0.00211    0.30020    2.00000
 1806.98830   90.36956    0.00211    0.63095    2.00000
 1807.48830   89.59023    0.00211    0.64369    2.00000
 1807.98830   88.76588    0.00212    0.64698    2.00000
 1808.48830   87.84854    0.00213    0.32842    2.00000
 1808.98830   86.92896    0.00216    0.11218    2.00000
 1809.48830   81.87902    0.00221    0.35726    3.00000
 1809.98830   76.72990    0.00222    0.76003    3.00000
 1810.48830   77.68106    0.00222    0.66563    3.00000
 1810.98830   78.77871    0.00222    0.55870    3.00000
 1811.48830   77.61336    0.00223    2.94062    3.00000
 1811.98830   76.39367    0.00223    7.30442    3.00000
 1812.48830   76.23969    0.00223    7.03072    3.00000
 1812.98830   76.11131    0.00223    6.69143    3.00000
 1813.48830   77.85075    0.00221    5.30619    3.00000
 1813.98830   79.63506    0.00222    3.94724    3.00000
 1814.48830   76.39941    0.00225    1.63161    3.00000
 1814.98830   73.04321    0.00223    0.35228    3.00000
 1815.48830   79.79356    0.00217    0.21986    2.00000
 1815.98830   86.78661    0.00216    0.11536    2.00000
 1816.48830   81.10795    0.00222    0.22806    3.00000
 1816.98830   75.12501    0.00224    0.39076    3.00000
 1817.48830   76.89272    0.00222    0.25771    3.00000
 1817.98830   78.84655    0.00224    0.14046    3.00000
 1818.48830   70.29168    0.00229    2.19254    3.00000
 1818.98830   61.48447    0.00232    6.74504    3.00000
 1819.48830   65.14558    0.00231    3.19861    3.00000
 1819.98830   69.10609    0.00223    0.90847    3.00000
 1820.48830   83.49765    0.00210    0.46377    2.00000
 1820.98830   98.13969    0.00208    0.12922    2.00000
 1821.48830   87.67871    0.00218    3.93137    2.00000
 1821.98830   76.61492    0.00222   12.99157    3.00000
 1822.48830   79.84591    0.00218    4.85525    2.00000
 1822.98830   83.42016    0.00216    0.45898    2.00000
 1823.48830   75.13647    0.00214    0.89072    2.00000
 1823.98830   66.56802    0.00210    1.62510    2.00000
 1824.48830   83.19901    0.00204    0.63249    2.00000
