# LAS format log file from PETREL
# Project units are specified as depth units
#==================================================================
~Version information
VERS.   2.0:
WRAP.   NO:
#==================================================================
~Well
STRT .m      1467.4883000 :
STOP .m      2627.9883000 :
STEP .m     0.50000000 :
NULL .        -999.250000 :
COMP.           : COMPANY
WELL.  B2   : WELL
FLD.            : FIELD
LOC.            : LOCATION
SRVC.           : SERVICE COMPANY
DATE.  2024-10-09 18:19:32   : Log Export Date {yyyy-MM-dd HH:mm:ss}
PROV.           : PROVINCE
UWI.      : UNIQUE WELL ID
API.            : API NUMBER
#==================================================================
~Curve
DEPT .m                   : DEPTH
Gamma .gAPI               : Gamma
Porosity .m3/m3           : Porosity
Resistivity .ohm.m        : Resistivity
LITH ._                   : LITH
~Parameter
#==================================================================
~Ascii
# ...
 2182.48830   81.68972    0.00208    0.35817    2.00000
 2182.98830   82.84592    0.00208    0.34714    2.00000
 2183.48830   80.54672    0.00210    0.39828    2.00000
 2183.98830   78.16454    0.00224    0.40602    3.00000
 2184.48830   66.61221    0.00248    1.94821    3.00000
 2184.98830   54.83967    0.00245    5.14293    3.00000
 2185.48830   58.21629    0.00215    9.05559    2.00000
 2185.98830   61.95670    0.00199   13.58551    2.00000
 2186.48830   65.22082    0.00198    4.55869    2.00000
 2186.98830   68.47350    0.00205    0.24491    2.00000
 2187.48830   68.06691    0.00221    0.51715    3.00000
 2187.98830   67.57244    0.00225    1.00043    3.00000
 2188.48830   71.44390    0.00218    1.33128    2.00000
 2188.98830   75.42020    0.00212    1.69998    2.00000
 2189.48830   79.46340    0.00208    0.79456    2.00000
 2189.98830   83.50821    0.00210    0.19027    2.00000
 2190.48830   76.73099    0.00216    0.48316    2.00000
 2190.98830   69.69389    0.00216    0.97078    2.00000
 2191.48830   76.71253    0.00210    0.76749    2.00000
 2191.98830   84.06869    0.00206    0.54262    2.00000
 2192.48830   85.18954    0.00205    0.88662    2.00000
 2192.98830   86.16067    0.00205    1.31873    2.00000
 2193.48830   84.15864    0.00207    1.73150    2.00000
 2193.98830   82.08521    0.00207    2.24233    2.00000
 2194.48830   84.99009    0.00204    1.18866    2.00000
 2194.98830   88.01451    0.00206    0.40771    2.00000
 2195.48830   80.40398    0.00213    1.25179    2.00000
 2195.98830   72.53806    0.00217    2.60984    2.00000
 2196.48830   72.79305    0.00216    2.71366    2.00000
 2196.98830   73.24305    0.00215    2.80361    2.00000
 2197.48830   75.23220    0.00213    1.29348    2.00000
 2197.98830   77.25831    0.00210    0.33814    2.00000
 2198.48830   83.23111    0.00204    1.51028    2.00000
 2198.98830   89.29868    0.00203    3.59579    2.00000
 2199.48830   84.93686    0.00207    3.30642    2.00000
 2199.98830   80.32460    0.00210    3.02628    2.00000
 2200.48830   78.76825    0.00212    2.34534    2.00000
 2200.98830   77.28528    0.00212    1.76516    2.00000
 2201.48830   77.50365    0.00212    1.75512    2.00000
 2201.98830   77.76289    0.00210    1.78872    2.00000
 2202.48830   81.60400    0.00207    1.60669    2.00000
 2202.98830   85.53113    0.00205    1.39648    2.00000
 2203.48830   85.77003    0.00204    0.85429    2.00000
 2203.98830   85.92037    0.00208    0.42179    2.00000
 2204.48830   78.21378    0.00215    1.53825    2.00000
 2204.98830   70.31852    0.00213    3.59574    2.00000
 2205.48830   82.67361    0.00201    2.27718    2.00000
 2205.98830   95.51496    0.00197    0.99147    2.00000
 2206.48830   92.58027    0.00200    0.56578    2.00000
 2206.98830   89.26675    0.00200    0.28222    2.00000
 2207.48830   91.82638    0.00198    0.41834    2.00000
 2207.98830   94.52704    0.00196    0.59356    2.00000
 2208.48830   95.52995    0.00195    0.30613    2.00000
 2208.98830   96.49209    0.00198    0.10176    2.00000
 2209.48830   89.59816    0.00204    0.38535    2.00000
 2209.98830   82.51558    0.00210    0.84339    2.00000
 2210.48830   75.51348    0.00215    1.12618    2.00000
 2210.98830   68.51331    0.00217    1.46219    2.00000
 2211.48830   66.46790    0.00216    1.03351    2.00000
 2211.98830   64.54147    0.00214    0.67647    2.00000
 2212.48830   73.06462    0.00210    0.84737    2.00000
 2212.98830   81.83869    0.00211    1.01054    2.00000
 2213.48830   76.42374    0.00216    3.42559    2.00000
 2213.98830   70.66808    0.00216    7.53662    2.00000
 2214.48830   76.87542    0.00210    3.36540    2.00000
 2214.98830   83.37004    0.00207    0.64465    2.00000
 2215.48830   82.47087    0.00208    2.19723    2.00000
 2215.98830   81.39416    0.00210    4.74996    2.00000
 2216.48830   77.31133    0.00214    2.72178    2.00000
 2216.98830   73.15632    0.00217    1.25220    2.00000
 2217.48830   71.47347    0.00219    0.85078    2.00000
 2217.98830   69.84998    0.00217    0.55949    2.00000
 2218.48830   74.84647    0.00212    0.55172    2.00000
 2218.98830   80.00193    0.00211    0.53247    2.00000
 2219.48830   78.62433    0.00212    0.33021    2.00000
 2219.98830   77.08984    0.00211    0.17961    2.00000
 2220.48830   80.75186    0.00207    0.61552    2.00000
 2220.98830   84.53866    0.00207    1.33039    2.00000
 2221.48830   82.05799    0.00209    1.27127    2.00000
 2221.98830   79.42683    0.00207    1.25987    2.00000
 2222.48830   87.59943    0.00199    0.54951    2.00000
 2222.98830   96.03147    0.00203    0.08696    2.00000
 2223.48830   81.14067    0.00220    0.65126    2.00000
 2223.98830   65.68981    0.00225    1.78129    3.00000
 2224.48830   71.21255    0.00217    1.66443    2.00000
 2224.98830   77.23893    0.00167    2.43676    2.00000
 2225.48830   79.67798    0.00120    4.39215    1.00000
 2225.98830   82.03088    0.00117    4.04286    1.00000
 2226.48830   85.12350    0.00114    1.88345    1.00000
 2226.98830   88.23389    0.00111    0.46123    1.00000
 2227.48830   89.83958    0.00110    0.47983    1.00000
 2227.98830   91.40915    0.00108    0.52535    1.00000
 2228.48830   93.06713    0.00107    1.68610    1.00000
 2228.98830   94.72723    0.00109    3.35527    1.00000
 2229.48830   88.33933    0.00115    3.38846    1.00000
 2229.98830   81.75817    0.00118    3.58996    1.00000
 2230.48830   82.31081    0.00117    3.38616    1.00000
 2230.98830   83.03477    0.00115    3.27310    1.00000
 2231.48830   87.13096    0.00111    2.29104    1.00000
 2231.98830   91.30813    0.00107    1.42302    1.00000
 2232.48830   96.43286    0.00102    1.37785    1.00000
 2232.98830  101.58035    0.00104    1.15662    1.00000
 2233.48830   91.80995    0.00114   12.96698    1.00000
 2233.98830   81.68134    0.00119   35.51595    1.00000
 2234.48830   79.70541    0.00121   17.33582    1.00000
 2234.98830   77.92526    0.00121    5.60979    1.00000
 2235.48830   80.34886    0.00118   11.98273    1.00000
 2235.98830   82.87340    0.00117   21.46861    1.00000
 2236.48830   83.34792    0.00117    9.59024    1.00000
 2236.98830   83.77321    0.00124    1.90194    1.00000
 2237.48830   76.38853    0.00140   19.85300    1.00000
 2237.98830   68.81630    0.00143   58.36376    2.00000
 2238.48830   70.75858    0.00132   33.98602    1.00000
 2238.98830   72.92934    0.00131   10.49187    1.00000
 2239.48830   68.85362    0.00140    5.03998    1.00000
 2239.98830   64.62791    0.00145    2.09062    1.00000
 2240.48830   66.69029    0.00148    1.99138    1.00000
 2240.98830   68.90366    0.00138    2.34238    1.00000
 2241.48830   82.51529    0.00116    2.45806    1.00000
 2241.98830   96.40062    0.00106    1.99210    1.00000
 2242.48830   94.36678    0.00108    1.10358    1.00000
 2242.98830   91.95066    0.00112    0.46812    1.00000
 2243.48830   84.14508    0.00120    1.56961    1.00000
 2243.98830   76.21008    0.00120    3.57912    1.00000
 2244.48830   84.42278    0.00112    3.49839    1.00000
 2244.98830   93.02322    0.00110    2.93146    1.00000
 2245.48830   88.35323    0.00114   14.69699    1.00000
 2245.98830   83.36456    0.00118   34.38097    1.00000
 2246.48830   79.92042    0.00122   15.25413    1.00000
 2246.98830   76.51337    0.00121    4.14069    1.00000
 2247.48830   81.14720    0.00117    5.49327    1.00000
 2247.98830   85.97412    0.00116    6.96856    1.00000
 2248.48830   82.83586    0.00119    4.68305    1.00000
 2248.98830   79.50634    0.00121    2.94147    1.00000
 2249.48830   78.66927    0.00121    2.40146    1.00000
 2249.98830   77.89206    0.00124    1.89354    1.00000
 2250.48830   74.21131    0.00127    4.51997    1.00000
 2250.98830   70.46084    0.00126    8.81626    1.00000
 2251.48830   76.65666    0.00120    4.85641    1.00000
 2251.98830   83.09133    0.00120    1.52073    1.00000
 2252.48830   76.55327    0.00126    9.47175    1.00000
 2252.98830   69.70368    0.00128   24.74601    1.00000
 2253.48830   72.48521    0.00126   13.23417    1.00000
