# LAS format log file from PETREL
# Project units are specified as depth units
#==================================================================
~Version information
VERS.   2.0:
WRAP.   NO:
#==================================================================
~Well
STRT .m      1467.4883000 :
STOP .m      2627.9883000 :
STEP .m     0.50000000 :
NULL .        -999.250000 :
COMP.           : COMPANY
WELL.  B2   : WELL
FLD.            : FIELD
LOC.            : LOCATION
SRVC.           : SERVICE COMPANY
DATE.  2024-10-09 18:19:32   : Log Export Date {yyyy-MM-dd HH:mm:ss}
PROV.           : PROVINCE
UWI.      : UNIQUE WELL ID
API.            : API NUMBER
#==================================================================
~Curve
DEPT .m                   : DEPTH
Gamma .gAPI               : Gamma
Porosity .m3/m3           : Porosity
Resistivity .ohm.m        : Resistivity
LITH ._                   : LITH
~Parameter
#==================================================================
~Ascii
# ...
 2539.98830   80.87373    0.00118    0.51676    1.00000
 2540.48830   83.21481    0.00116    1.03464    1.00000
 2540.98830   85.62509    0.00116    1.77488    1.00000
 2541.48830   83.30141    0.00118    1.74371    1.00000
 2541.98830   80.86404    0.00121    1.65946    1.00000
 2542.48830   75.99290    0.00126    3.99602    1.00000
 2542.98830   71.06330    0.00127    7.60942    1.00000
 2543.48830   74.13321    0.00124    6.20159    1.00000
 2543.98830   77.39522    0.00120    4.85640    1.00000
 2544.48830   83.05711    0.00114    3.82211    1.00000
 2544.98830   88.77662    0.00111    2.73787    1.00000
 2545.48830   91.20477    0.00108    1.39905    1.00000
 2545.98830   93.55389    0.00107    0.46306    1.00000
 2546.48830   94.34871    0.00106    0.73824    1.00000
 2546.98830   95.10621    0.00109    1.03615    1.00000
 2547.48830   87.95661    0.00116    3.49882    1.00000
 2547.98830   80.61714    0.00114    8.08649    1.00000
 2548.48830   90.90349    0.00105    3.88630    1.00000
 2548.98830  101.61309    0.00104    0.57169    1.00000
 2549.48830   92.40433    0.00113    2.06821    1.00000
 2549.98830   82.71728    0.00119    4.39494    1.00000
 2550.48830   78.48793    0.00123    5.58690    1.00000
 2550.98830   74.38965    0.00126    6.87652    1.00000
 2551.48830   71.89605    0.00129    4.70284    1.00000
 2551.98830   69.44098    0.00129    3.02065    1.00000
 2552.48830   70.23093    0.00129    5.22105    1.00000
 2552.98830   71.09881    0.00137    6.98310    1.00000
 2553.48830   65.15157    0.00156    3.86795    2.00000
 2553.98830   59.04068    0.00151    2.81341    2.00000
 2554.48830   76.39835    0.00122    2.04852    1.00000
 2554.98830   94.31957    0.00111    0.64791    1.00000
 2555.48830   84.63963    0.00120   49.37671    1.00000
 2555.98830   74.29690    0.00121  181.05679    3.00000
 2556.48830   84.13840    0.00111   64.73402    1.00000
 2556.98830   94.46458    0.00108    1.14816    1.00000
 2557.48830   89.85480    0.00113    0.81684    1.00000
 2557.98830   84.88635    0.00117    0.82356    1.00000
 2558.48830   80.79417    0.00121    0.76263    1.00000
 2558.98830   76.72304    0.00123    0.72823    1.00000
 2559.48830   71.38449    0.00123    2.51013    1.00000
 2559.98830   66.01551    0.00123    5.47194    1.00000
 2560.48830   71.52985    0.00123    5.97279    1.00000
 2560.98830   77.30553    0.00121    6.54274    1.00000
 2561.48830   80.33580    0.00118   10.87918    1.00000
 2561.98830   83.30015    0.00121   15.04622    1.00000
 2562.48830   73.15236    0.00130   16.79351    1.00000
 2562.98830   62.68972    0.00132   20.42559    1.00000
 2563.48830   68.28312    0.00128   14.13365    1.00000
 2563.98830   74.26208    0.00126    7.99340    1.00000
 2564.48830   73.14472    0.00127    8.40655    1.00000
 2564.98830   71.85696    0.00126    9.24093    1.00000
 2565.48830   74.31598    0.00124    4.73182    1.00000
 2565.98830   76.86497    0.00121    1.57782    1.00000
 2566.48830   80.87410    0.00117    1.15970    1.00000
 2566.98830   84.91830    0.00114    0.80607    1.00000
 2567.48830   87.39317    0.00112    0.79408    1.00000
 2567.98830   89.83036    0.00113    0.72999    1.00000
 2568.48830   83.79137    0.00119    2.50372    1.00000
 2568.98830   77.54884    0.00124    5.21274    1.00000
 2569.48830   74.54375    0.00126    5.73864    1.00000
 2569.98830   71.61641    0.00127    6.39821    1.00000
 2570.48830   72.62028    0.00126    3.37347    1.00000
 2570.98830   73.71854    0.00119    1.38183    1.00000
 2571.48830   88.12823    0.00105    1.40865    1.00000
 2571.98830  102.85757    0.00103    1.16054    1.00000
 2572.48830   93.80254    0.00111    1.32578    1.00000
 2572.98830   84.17638    0.00117    1.57069    1.00000
 2573.48830   81.38794    0.00120    1.57861    1.00000
 2573.98830   78.76370    0.00119    1.67057    1.00000
 2574.48830   82.62380    0.00116   11.11961    1.00000
 2574.98830   86.63962    0.00117   28.38560    1.00000
 2575.48830   80.49314    0.00122   12.18098    1.00000
 2575.98830   74.10264    0.00125    3.25921    1.00000
 2576.48830   69.97250    0.00125   40.99049    1.00000
 2576.98830   65.89665    0.00124  124.96593    2.00000
 2577.48830   70.62326    0.00124   43.21524    1.00000
 2577.98830   75.56124    0.00123    3.07248    1.00000
 2578.48830   78.37585    0.00120    1.61344    1.00000
 2578.98830   81.13946    0.00118    0.75203    1.00000
 2579.48830   81.85571    0.00118    4.27355    1.00000
 2579.98830   82.52280    0.00119   10.59866    1.00000
 2580.48830   78.66769    0.00123    5.97625    1.00000
 2580.98830   74.70399    0.00126    2.72242    1.00000
 2581.48830   72.15632    0.00128    3.19197    1.00000
 2581.98830   69.64265    0.00125    4.17011    1.00000
 2582.48830   79.98721    0.00115    2.84883    1.00000
 2582.98830   90.64052    0.00113    1.31151    1.00000
 2583.48830   84.47861    0.00119    1.28653    1.00000
 2583.98830   77.91293    0.00121    1.38794    1.00000
 2584.48830   80.05630    0.00119    1.77847    1.00000
 2584.98830   82.40881    0.00119    2.13222    1.00000
 2585.48830   78.88324    0.00123    2.56022    1.00000
 2585.98830   75.21651    0.00121    3.28460    1.00000
 2586.48830   82.43607    0.00114    2.98656    1.00000
 2586.98830   89.91703    0.00113    2.36207    1.00000
 2587.48830   85.80376    0.00116    1.33919    1.00000
 2587.98830   81.41208    0.00117    0.68912    1.00000
 2588.48830   85.13155    0.00113    1.01877    1.00000
 2588.98830   89.04578    0.00110    1.46034    1.00000
 2589.48830   91.89263    0.00107    0.73159    1.00000
 2589.98830   94.71385    0.00107    0.21119    1.00000
 2590.48830   93.54695    0.00108    5.01672    1.00000
 2590.98830   92.28429    0.00111   15.47052    1.00000
 2591.48830   85.87230    0.00117    9.24665    1.00000
 2591.98830   79.33665    0.00121    5.04675    1.00000
 2592.48830   78.92565    0.00121    4.09035    1.00000
 2592.98830   78.66172    0.00121    3.31854    1.00000
 2593.48830   72.29042    0.00120    3.57691    1.00000
 2593.98830   65.77247    0.00119    3.88761    1.00000
 2594.48830   74.21821    0.00118    2.51978    1.00000
 2594.98830   83.02327    0.00118    1.36210    1.00000
 2595.48830   81.52866    0.00119    1.18384    1.00000
 2595.98830   79.78672    0.00117    1.11312    1.00000
 2596.48830   86.02246    0.00111    1.69611    1.00000
 2596.98830   92.44978    0.00110    2.26540    1.00000
 2597.48830   87.70100    0.00115    1.38970    1.00000
 2597.98830   82.68386    0.00118    0.77146    1.00000
 2598.48830   80.26224    0.00121    8.65993    1.00000
 2598.98830   77.90294    0.00123   24.97328    1.00000
 2599.48830   76.32754    0.00124   20.43646    1.00000
 2599.98830   74.77097    0.00121   17.45638    1.00000
 2600.48830   83.75732    0.00112    7.70187    1.00000
 2600.98830   92.99683    0.00112    0.97803    1.00000
 2601.48830   83.23573    0.00122    1.87555    1.00000
 2601.98830   73.01837    0.00123    3.45071    1.00000
 2602.48830   79.92114    0.00117    2.66897    1.00000
 2602.98830   87.23503    0.00111    1.78452    1.00000
 2603.48830   90.83124    0.00108    1.27800    1.00000
 2603.98830   94.33817    0.00109    0.77261    1.00000
 2604.48830   89.82122    0.00113    5.41145    1.00000
 2604.98830   85.11160    0.00116   14.03683    1.00000
 2605.48830   83.67696    0.00117    7.92845    1.00000
 2605.98830   82.32096    0.00116    3.57027    1.00000
 2606.48830   75.23044    0.00113    4.58026    1.00000
 2606.98830   68.00222    0.00111    5.81961    1.00000
 2607.48830   79.19345    0.00110    4.29008    1.00000
 2607.98830   90.82700    0.00111    2.79519    1.00000
 2608.48830   87.67942    0.00114    2.80177    1.00000
 2608.98830   84.17690    0.00119    2.76399    1.00000
 2609.48830   77.65707    0.00125    2.33198    1.00000
 2609.98830   71.06477    0.00127    2.12219    1.00000
 2610.48830   74.00884    0.00124    3.55897    1.00000
 2610.98830   77.18191    0.00123    5.36844    1.00000
