# LAS format log file from PETREL
# Project units are specified as depth units
#==================================================================
~Version information
VERS.   2.0:
WRAP.   NO:
#==================================================================
~Well
STRT .m      1467.4883000 :
STOP .m      2627.9883000 :
STEP .m     0.50000000 :
NULL .        -999.250000 :
COMP.           : COMPANY
WELL.  B2   : WELL
FLD.            : FIELD
LOC.            : LOCATION
SRVC.           : SERVICE COMPANY
DATE.  2024-10-09 18:19:32   : Log Export Date {yyyy-MM-dd HH:mm:ss}
PROV.           : PROVINCE
UWI.      : UNIQUE WELL ID
API.            : API NUMBER
#==================================================================
~Curve
DEPT .m                   : DEPTH
Gamma .gAPI               : Gamma
Porosity .m3/m3           : Porosity
Resistivity .ohm.m        : Resistivity
LITH ._                   : LITH
~Parameter
#==================================================================
~Ascii
# ...
 1538.98830   63.82179    0.00209    0.65975    2.00000
 1539.48830   67.09837    0.00222    6.63663    3.00000
 1539.98830   71.00037    0.00226   18.84587    3.00000
 1540.48830   76.50803    0.00221    6.36164    3.00000
 1540.98830   82.05424    0.00220    0.25637    2.00000
 1541.48830   78.27286    0.00223    1.64006    3.00000
 1541.98830   74.26749    0.00222    4.58196    3.00000
 1542.48830   80.27634    0.00217    9.88139    2.00000
 1542.98830   86.52567    0.00214   17.23001    2.00000
 1543.48830   86.91898    0.00213    7.79238    2.00000
 1543.98830   87.17167    0.00213    1.87334    2.00000
 1544.48830   86.58978    0.00214    1.79673    2.00000
 1544.98830   85.98785    0.00213    1.83832    2.00000
 1545.48830   88.54037    0.00211    1.31460    2.00000
 1545.98830   91.16862    0.00211    0.83269    2.00000
 1546.48830   87.68954    0.00214    0.73868    2.00000
 1546.98830   84.06381    0.00218    0.65806    2.00000
 1547.48830   79.82836    0.00222    3.17664    3.00000
 1547.98830   75.57826    0.00229    7.26136    3.00000
 1548.48830   69.93655    0.00240    3.89929    3.00000
 1548.98830   64.26141    0.00238    1.87050    3.00000
 1549.48830   75.29313    0.00222    0.87827    3.00000
 1549.98830   86.72603    0.00213    0.17507    2.00000
 1550.48830   87.48365    0.00213    0.34272    2.00000
 1550.98830   87.98492    0.00216    0.57265    2.00000
 1551.48830   81.07613    0.00222    1.61083    3.00000
 1551.98830   73.98941    0.00224    3.24656    3.00000
 1552.48830   77.95548    0.00220    1.65161    2.00000
 1552.98830   82.18697    0.00216    0.52055    2.00000
 1553.48830   86.34779    0.00212    0.56378    2.00000
 1553.98830   90.50691    0.00210    0.61913    2.00000
 1554.48830   89.72626    0.00211    0.64708    2.00000
 1554.98830   88.82700    0.00215    0.65201    2.00000
 1555.48830   80.84350    0.00223    1.54814    3.00000
 1555.98830   72.68988    0.00221    3.02218    3.00000
 1556.48830   84.97893    0.00209    1.44575    2.00000
 1556.98830   97.75886    0.00205    0.29460    2.00000
 1557.48830   93.83089    0.00209    0.54670    2.00000
 1557.98830   89.50170    0.00211    0.91775    2.00000
 1558.48830   79.23158    0.00211    0.58953    2.00000
 1558.98830   68.81879    0.00213    0.31442    2.00000
 1559.48830   73.94659    0.00218    0.38490    2.00000
 1559.98830   79.44756    0.00222    0.47151    3.00000
 1560.48830   76.74705    0.00224    1.14556    3.00000
 1560.98830   73.84960    0.00217    2.32748    2.00000
 1561.48830   70.04671    0.00199    2.94903    2.00000
 1561.98830   66.22208    0.00196    3.15965    2.00000
 1562.48830   75.00520    0.00209    1.29309    2.00000
 1562.98830   84.09109    0.00218    0.33038    2.00000
 1563.48830   80.10040    0.00222    0.53263    3.00000
 1563.98830   75.79568    0.00221    0.84147    3.00000
 1564.48830   82.26903    0.00215    0.53451    2.00000
 1564.98830   89.00119    0.00213    0.26064    2.00000
 1565.48830   85.94054    0.00216    0.87495    2.00000
 1565.98830   82.64474    0.00218    1.87390    2.00000
 1566.48830   81.40195    0.00219    1.49721    2.00000
 1566.98830   80.20847    0.00226    1.07621    3.00000
 1567.48830   72.34346    0.00238    1.55056    3.00000
 1567.98830   64.31824    0.00238    2.32390    3.00000
 1568.48830   73.35851    0.00224    1.21501    3.00000
 1568.98830   82.80856    0.00218    0.33097    2.00000
 1569.48830   80.30620    0.00221    0.25839    3.00000
 1569.98830   77.51682    0.00221    0.21173    3.00000
 1570.48830   80.34569    0.00218    0.34691    2.00000
 1570.98830   83.30948    0.00220    0.50369    2.00000
 1571.48830   76.79952    0.00226    0.38160    3.00000
 1571.98830   70.06207    0.00227    0.29237    3.00000
 1572.48830   75.30996    0.00222    0.31481    3.00000
 1572.98830   80.84564    0.00218    0.33601    2.00000
 1573.48830   82.58042    0.00217    0.26743    2.00000
 1573.98830   84.22393    0.00217    0.20083    2.00000
 1574.48830   82.60535    0.00218    0.16391    2.00000
 1574.98830   80.90843    0.00218    0.13420    2.00000
 1575.48830   83.26086    0.00216    0.29780    2.00000
 1575.98830   85.71053    0.00216    0.52642    2.00000
 1576.48830   82.97803    0.00218    0.45842    2.00000
 1576.98830   80.12109    0.00220    0.39474    2.00000
 1577.48830   79.84228    0.00220    0.46167    3.00000
 1577.98830   79.62538    0.00214    0.57217    2.00000
 1578.48830   92.70328    0.00202    0.28374    2.00000
 1578.98830  106.10043    0.00202    0.06194    2.00000
 1579.48830   91.61796    0.00216    0.30471    2.00000
 1579.98830   76.46600    0.00222    0.74046    3.00000
 1580.48830   78.87835    0.00220    1.52326    2.00000
 1580.98830   81.71247    0.00217    2.62983    2.00000
 1581.48830   85.06857    0.00214    1.18083    2.00000
 1581.98830   88.43719    0.00215    0.24961    2.00000
 1582.48830   82.40743    0.00221    0.84189    3.00000
 1582.98830   76.15199    0.00224    1.82711    3.00000
 1583.48830   75.44401    0.00224    1.54403    3.00000
 1583.98830   74.86923    0.00225    1.25742    3.00000
 1584.48830   74.34699    0.00225    1.08626    3.00000
 1584.98830   73.82601    0.00222    0.96724    3.00000
 1585.48830   81.77467    0.00214    0.55981    2.00000
 1585.98830   89.92670    0.00214    0.22167    2.00000
 1586.48830   82.35860    0.00221    0.68850    3.00000
 1586.98830   74.41302    0.00222    1.47566    3.00000
 1587.48830   80.10255    0.00217    1.01163    2.00000
 1587.98830   86.11952    0.00215    0.57259    2.00000
 1588.48830   85.18589    0.00216    0.41494    2.00000
 1588.98830   84.08535    0.00217    0.28501    2.00000
 1589.48830   81.20764    0.00220    0.39317    3.00000
 1589.98830   78.28725    0.00221    0.52958    3.00000
 1590.48830   78.51225    0.00221    0.90223    3.00000
 1590.98830   78.81277    0.00218    1.42104    2.00000
 1591.48830   85.06345    0.00212    3.07103    2.00000
 1591.98830   91.45699    0.00212    5.20657    2.00000
 1592.48830   84.83067    0.00219    2.19743    2.00000
 1592.98830   77.89169    0.00216    0.54080    2.00000
 1593.48830   90.22739    0.00204    0.22831    2.00000
 1593.98830  103.02592    0.00203    0.03481    2.00000
 1594.48830   91.98462    0.00214    0.60686    2.00000
 1594.98830   80.37084    0.00220    1.85591    2.00000
 1595.48830   70.93837    0.00220    1.32682    3.00000
 1595.98830   61.55828    0.00221    0.85491    3.00000
 1596.48830   70.10619    0.00221    0.75158    3.00000
 1596.98830   79.08460    0.00219    0.67461    2.00000
 1597.48830   83.50459    0.00215    0.49548    2.00000
 1597.98830   87.81512    0.00213    0.32670    2.00000
 1598.48830   86.29462    0.00215    0.61716    2.00000
 1598.98830   84.63409    0.00218    0.99517    2.00000
 1599.48830   80.06969    0.00222    2.65433    3.00000
 1599.98830   75.43555    0.00223    5.18842    3.00000
 1600.48830   77.28403    0.00221    1.98059    3.00000
 1600.98830   79.28820    0.00218    0.23702    2.00000
 1601.48830   84.15948    0.00214    0.32166    2.00000
 1601.98830   89.09960    0.00212    0.44405    2.00000
 1602.48830   78.29843    0.00213    1.97340    2.00000
 1602.98830   67.11927    0.00217    4.51806    2.00000
 1603.48830   70.42735    0.00222    2.52129    3.00000
 1603.98830   74.08332    0.00223    1.15460    3.00000
 1604.48830   78.45470    0.00219    0.80957    2.00000
 1604.98830   82.84325    0.00219    0.50631    2.00000
 1605.48830   78.71572    0.00223    1.83160    3.00000
 1605.98830   74.38368    0.00223    4.13919    3.00000
 1606.48830   79.82861    0.00217    2.19570    2.00000
 1606.98830   85.50831    0.00223    0.67670    3.00000
 1607.48830   72.57659    0.00238    1.82817    3.00000
 1607.98830   59.19796    0.00238    3.88392    3.00000
 1608.48830   73.01515    0.00222    1.69961    3.00000
 1608.98830   87.48540    0.00216    0.20080    2.00000
 1609.48830   80.85671    0.00222    0.52598    3.00000
 1609.98830   73.72137    0.00226    1.04806    3.00000
