# LAS format log file from PETREL
# Project units are specified as depth units
#==================================================================
~Version information
VERS.   2.0:
WRAP.   NO:
#==================================================================
~Well
STRT .m      1467.4883000 :
STOP .m      2627.9883000 :
STEP .m     0.50000000 :
NULL .        -999.250000 :
COMP.           : COMPANY
WELL.  B2   : WELL
FLD.            : FIELD
LOC.            : LOCATION
SRVC.           : SERVICE COMPANY
DATE.  2024-10-09 18:19:32   : Log Export Date {yyyy-MM-dd HH:mm:ss}
PROV.           : PROVINCE
UWI.      : UNIQUE WELL ID
API.            : API NUMBER
#==================================================================
~Curve
DEPT .m                   : DEPTH
Gamma .gAPI               : Gamma
Porosity .m3/m3           : Porosity
Resistivity .ohm.m        : Resistivity
LITH ._                   : LITH
~Parameter
#==================================================================
~Ascii
# ...
 1824.98830  100.43512    0.00210    0.05838    2.00000
 1825.48830   82.99796    0.00231    0.81073    3.00000
 1825.98830   64.72818    0.00235    2.47902    3.00000
 1826.48830   73.05479    0.00224    1.99635    3.00000
 1826.98830   82.02008    0.00215    1.42770    2.00000
 1827.48830   89.53254    0.00207    0.65383    2.00000
 1827.98830   97.01012    0.00206    0.14194    2.00000
 1828.48830   92.15468    0.00211    0.16937    2.00000
 1828.98830   87.00309    0.00215    0.20990    2.00000
 1829.48830   84.38439    0.00217    0.44651    2.00000
 1829.98830   81.82652    0.00219    0.76842    2.00000
 1830.48830   79.00912    0.00222    0.56450    3.00000
 1830.98830   76.18548    0.00223    0.39214    3.00000
 1831.48830   76.63174    0.00223    0.24915    3.00000
 1831.98830   77.15653    0.00223    0.13635    3.00000
 1832.48830   75.16930    0.00225    7.65535    3.00000
 1832.98830   73.12174    0.00224   27.66766    3.00000
 1833.48830   77.78803    0.00220   10.33882    2.00000
 1833.98830   82.61555    0.00217    0.91170    2.00000
 1834.48830   84.03047    0.00215    0.59092    2.00000
 1834.98830   85.36346    0.00213    0.40461    2.00000
 1835.48830   89.68149    0.00209    0.46816    2.00000
 1835.98830   94.07121    0.00210    0.51642    2.00000
 1836.48830   87.21611    0.00216    0.61170    2.00000
 1836.98830   80.09100    0.00217    0.75689    2.00000
 1837.48830   86.88382    0.00210    0.45044    2.00000
 1837.98830   94.01085    0.00209    0.19196    2.00000
 1838.48830   89.92979    0.00213    3.48753    2.00000
 1838.98830   85.57957    0.00213   11.14190    2.00000
 1839.48830   88.94459    0.00210    6.20662    2.00000
 1839.98830   92.49487    0.00211    2.32316    2.00000
 1840.48830   87.32867    0.00216    1.45978    2.00000
 1840.98830   81.95317    0.00218    0.87748    2.00000
 1841.48830   83.03345    0.00216    0.50612    2.00000
 1841.98830   84.26876    0.00224    0.21556    3.00000
 1842.48830   76.63153    0.00240    1.06922    3.00000
 1842.98830   68.78124    0.00243    2.67754    3.00000
 1843.48830   71.11607    0.00232    1.39787    3.00000
 1843.98830   73.69549    0.00222    0.41274    3.00000
 1844.48830   81.27541    0.00215    0.30062    2.00000
 1844.98830   88.97542    0.00213    0.20059    2.00000
 1845.48830   86.57088    0.00215    0.22527    2.00000
 1845.98830   83.92369    0.00216    0.25858    2.00000
 1846.48830   85.24148    0.00214    0.18226    2.00000
 1846.98830   86.65447    0.00223    0.10545    3.00000
 1847.48830   77.16033    0.00242    0.23891    3.00000
 1847.98830   67.40427    0.00240    0.48031    3.00000
 1848.48830   81.81071    0.00216    0.29866    2.00000
 1848.98830   96.79738    0.00206    0.10395    2.00000
 1849.48830   92.22360    0.00211    0.19279    2.00000
 1849.98830   87.18012    0.00216    0.31137    2.00000
 1850.48830   81.94963    0.00221    0.54380    3.00000
 1850.98830   76.71465    0.00223    0.85089    3.00000
 1851.48830   77.47672    0.00222    2.00051    3.00000
 1851.98830   78.38279    0.00223    3.61903    3.00000
 1852.48830   75.78329    0.00225    3.10870    3.00000
 1852.98830   73.09961    0.00224    2.68453    3.00000
 1853.48830   77.39131    0.00220    1.79724    3.00000
 1853.98830   81.85052    0.00220    1.01450    2.00000
 1854.48830   78.57251    0.00223    1.40892    3.00000
 1854.98830   75.10870    0.00223    1.94998    3.00000
 1855.48830   78.98466    0.00219    3.56515    2.00000
 1855.98830   83.03688    0.00220    5.53208    2.00000
 1856.48830   77.56264    0.00225    5.85188    3.00000
 1856.98830   71.85963    0.00226    6.36928    3.00000
 1857.48830   75.04188    0.00223    2.52148    3.00000
 1857.98830   78.43748    0.00220    0.35622    2.00000
 1858.48830   81.88497    0.00216    0.37124    2.00000
 1858.98830   85.33371    0.00214    0.41781    2.00000
 1859.48830   88.10737    0.00211    0.61126    2.00000
 1859.98830   90.86482    0.00213    0.81664    2.00000
 1860.48830   84.83627    0.00218    1.02049    2.00000
 1860.98830   78.59676    0.00221    1.27006    3.00000
 1861.48830   78.80037    0.00221    1.06219    3.00000
 1861.98830   79.15871    0.00221    0.85670    3.00000
 1862.48830   78.00362    0.00222    3.03550    3.00000
 1862.98830   76.81220    0.00220    6.86332    2.00000
 1863.48830   83.53824    0.00213    2.57194    2.00000
 1863.98830   90.45439    0.00212    0.20882    2.00000
 1864.48830   86.66742    0.00216    0.81505    2.00000
 1864.98830   82.62343    0.00216    1.94251    2.00000
 1865.48830   86.16841    0.00212    1.33859    2.00000
 1865.98830   89.89564    0.00210    0.78528    2.00000
 1866.48830   90.29705    0.00210    0.45159    2.00000
 1866.98830   90.61861    0.00211    0.20836    2.00000
 1867.48830   89.02444    0.00212    0.22719    2.00000
 1867.98830   87.38428    0.00212    0.25588    2.00000
 1868.48830   88.84058    0.00211    1.33607    2.00000
 1868.98830   90.37124    0.00211    3.28851    2.00000
 1869.48830   88.02640    0.00213    1.62972    2.00000
 1869.98830   85.58849    0.00218    0.51400    2.00000
 1870.48830   78.95483    0.00224    0.80067    3.00000
 1870.98830   72.22042    0.00222    1.26209    3.00000
 1871.48830   83.42932    0.00211    0.78683    2.00000
 1871.98830   95.06910    0.00209    0.33986    2.00000
 1872.48830   88.96336    0.00215    0.66806    2.00000
 1872.98830   82.43150    0.00220    1.11335    2.00000
 1873.48830   78.06259    0.00224    0.82336    3.00000
 1873.98830   73.74564    0.00226    0.58385    3.00000
 1874.48830   73.81283    0.00226    0.90500    3.00000
 1874.98830   73.98530    0.00222    1.36248    3.00000
 1875.48830   81.85510    0.00214    1.07704    2.00000
 1875.98830   89.90974    0.00213    0.74154    2.00000
 1876.48830   85.07575    0.00218    0.95326    2.00000
 1876.98830   79.93226    0.00220    1.21861    3.00000
 1877.48830   79.12173    0.00221    1.21844    3.00000
 1877.98830   78.41525    0.00217    1.27370    2.00000
 1878.48830   88.33598    0.00207    0.82905    2.00000
 1878.98830   98.51190    0.00206    0.40232    2.00000
 1879.48830   91.47253    0.00213    0.32039    2.00000
 1879.98830   84.01976    0.00229    0.23444    3.00000
 1880.48830   73.48124    0.00255    0.56514    3.00000
 1880.98830   62.86861    0.00258    1.14166    3.00000
 1881.48830   68.04103    0.00237    0.87197    3.00000
 1881.98830   73.59250    0.00225    0.51793    3.00000
 1882.48830   75.48471    0.00223    0.74452    3.00000
 1882.98830   77.28905    0.00219    1.06519    2.00000
 1883.48830   85.18995    0.00211    0.64835    2.00000
 1883.98830   93.23724    0.00208    0.28991    2.00000
 1884.48830   93.17529    0.00208    0.25681    2.00000
 1884.98830   92.91861    0.00211    0.22393    2.00000
 1885.48830   86.07108    0.00217    1.90065    2.00000
 1885.98830   79.06529    0.00221    5.22706    3.00000
 1886.48830   79.43091    0.00220    1.72811    3.00000
 1886.98830   79.97353    0.00221    0.08434    3.00000
 1887.48830   76.78938    0.00224    0.14511    3.00000
 1887.98830   73.51573    0.00222    0.25851    3.00000
 1888.48830   82.25365    0.00214    0.62262    2.00000
 1888.98830   91.27999    0.00209    1.15943    2.00000
 1889.48830   92.18532    0.00208    0.58407    2.00000
 1889.98830   92.89563    0.00210    0.18505    2.00000
 1890.48830   89.21146    0.00213    0.38661    2.00000
 1890.98830   85.42175    0.00218    0.65944    2.00000
 1891.48830   78.21596    0.00225    0.54194    3.00000
 1891.98830   70.92813    0.00232    0.43493    3.00000
 1892.48830   68.77085    0.00238    2.07371    3.00000
 1892.98830   66.73677    0.00236    5.20399    3.00000
 1893.48830   73.06616    0.00226    7.33094    3.00000
 1893.98830   79.59639    0.00219    9.64840    2.00000
 1894.48830   82.63962    0.00216    4.61433    2.00000
 1894.98830   85.59911    0.00215    1.25427    2.00000
 1895.48830   85.20306    0.00215    0.51651    2.00000
 1895.98830   84.72645    0.00212    0.11610    2.00000
