# LAS format log file from PETREL
# Project units are specified as depth units
#==================================================================
~Version information
VERS.   2.0:
WRAP.   NO:
#==================================================================
~Well
STRT .m      1467.4883000 :
STOP .m      2627.9883000 :
STEP .m     0.50000000 :
NULL .        -999.250000 :
COMP.           : COMPANY
WELL.  B2   : WELL
FLD.            : FIELD
LOC.            : LOCATION
SRVC.           : SERVICE COMPANY
DATE.  2024-10-09 18:19:32   : Log Export Date {yyyy-MM-dd HH:mm:ss}
PROV.           : PROVINCE
UWI.      : UNIQUE WELL ID
API.            : API NUMBER
#==================================================================
~Curve
DEPT .m                   : DEPTH
Gamma .gAPI               : Gamma
Porosity .m3/m3           : Porosity
Resistivity .ohm.m        : Resistivity
LITH ._                   : LITH
~Parameter
#==================================================================
~Ascii
# ...
 2396.98830   79.24874    0.00118    1.86171    1.00000
 2397.48830   85.38526    0.00112    2.76530    1.00000
 2397.98830   91.71461    0.00112    3.52197    1.00000
 2398.48830   84.42343    0.00119   22.96291    1.00000
 2398.98830   76.80518    0.00120   61.41706    1.00000
 2399.48830   82.68844    0.00114   20.58614    1.00000
 2399.98830   88.89590    0.00111    0.43890    1.00000
 2400.48830   89.49718    0.00111    1.67618    1.00000
 2400.98830   89.96384    0.00110    4.17425    1.00000
 2401.48830   90.28404    0.00110    1.89458    1.00000
 2401.98830   90.60074    0.00112    0.42805    1.00000
 2402.48830   85.27162    0.00117    2.10974    1.00000
 2402.98830   79.80693    0.00113    5.85505    1.00000
 2403.48830   73.21307    0.00099   19.24123    1.00000
 2403.98830   66.59209    0.00098   35.89598    1.00000
 2404.48830   72.72458    0.00113   12.44251    1.00000
 2404.98830   79.16331    0.00118    3.01530    1.00000
 2405.48830   71.63060    0.00114   16.71466    1.00000
 2405.98830   63.76239    0.00115   41.55664    1.00000
 2406.48830   70.22026    0.00120   22.18227    1.00000
 2406.98830   77.02214    0.00119   10.18890    1.00000
 2407.48830   83.77283    0.00113    6.10746    1.00000
 2407.98830   90.52228    0.00110    2.62297    1.00000
 2408.48830   89.78027    0.00111    1.36359    1.00000
 2408.98830   88.85836    0.00112    0.53645    1.00000
 2409.48830   87.61269    0.00113    0.66559    1.00000
 2409.98830   86.35926    0.00114    0.83669    1.00000
 2410.48830   86.38386    0.00114    1.06891    1.00000
 2410.98830   86.43915    0.00112    1.39189    1.00000
 2411.48830   91.38950    0.00107    1.15316    1.00000
 2411.98830   96.45739    0.00110    0.76175    1.00000
 2412.48830   84.03259    0.00122    1.26102    1.00000
 2412.98830   71.18774    0.00127    1.99766    1.00000
 2413.48830   73.30536    0.00125    4.11228    1.00000
 2413.98830   75.78227    0.00127    6.64330    1.00000
 2414.48830   70.07742    0.00133    4.96564    1.00000
 2414.98830   64.17610    0.00130    4.20992    1.00000
 2415.48830   77.36075    0.00116    2.37384    1.00000
 2415.98830   91.00371    0.00108    0.66748    1.00000
 2416.48830   93.31224    0.00106    0.41706    1.00000
 2416.98830   95.34859    0.00107    0.22267    1.00000
 2417.48830   92.56100    0.00109    0.33305    1.00000
 2417.98830   89.65758    0.00109    0.49667    1.00000
 2418.48830   93.45159    0.00105    0.44631    1.00000
 2418.98830   97.40643    0.00114    0.30193    1.00000
 2419.48830   81.49171    0.00136   15.18435    1.00000
 2419.98830   65.09987    0.00139   51.92957    1.00000
 2420.48830   73.90240    0.00125   22.35644    1.00000
 2420.98830   83.30992    0.00119    1.40452    1.00000
 2421.48830   79.55457    0.00122    1.23639    1.00000
 2421.98830   75.48313    0.00134    1.10242    1.00000
 2422.48830   68.57832    0.00155    5.46999    2.00000
 2422.98830   61.60548    0.00156   14.25668    2.00000
 2423.48830   66.30245    0.00138   10.03018    1.00000
 2423.98830   71.27966    0.00129    4.34810    1.00000
 2424.48830   70.48914    0.00129    6.45477    1.00000
 2424.98830   69.56010    0.00125    9.93979    1.00000
 2425.48830   78.63890    0.00117    8.68110    1.00000
 2425.98830   87.95802    0.00113    6.44516    1.00000
 2426.48830   85.82991    0.00116    3.45999    1.00000
 2426.98830   83.42692    0.00115    1.51976    1.00000
 2427.48830   86.42146    0.00112    2.33005    1.00000
 2427.98830   89.54561    0.00113    3.24591    1.00000
 2428.48830   85.73440    0.00116    2.65996    1.00000
 2428.98830   81.75664    0.00118    2.23924    1.00000
 2429.48830   83.20471    0.00116    2.78864    1.00000
 2429.98830   84.78307    0.00118    3.21720    1.00000
 2430.48830   77.05103    0.00124    4.71960    1.00000
 2430.98830   69.09541    0.00123    7.20873    1.00000
 2431.48830   79.97827    0.00114    4.34876    1.00000
 2431.98830   91.31351    0.00113    1.52825    1.00000
 2432.48830   84.33327    0.00119    2.64167    1.00000
 2432.98830   76.91322    0.00124    4.16010    1.00000
 2433.48830   74.97846    0.00125    3.10129    1.00000
 2433.98830   73.17542    0.00124    2.31288    1.00000
 2434.48830   78.86613    0.00118    1.50915    1.00000
 2434.98830   84.73681    0.00117    0.75287    1.00000
 2435.48830   81.63711    0.00120    1.09698    1.00000
 2435.98830   78.32201    0.00122    1.52670    1.00000
 2436.48830   76.18060    0.00124    2.32025    1.00000
 2436.98830   74.06738    0.00121    3.57626    1.00000
 2437.48830   83.34872    0.00112    2.17243    1.00000
 2437.98830   92.90367    0.00112    0.76756    1.00000
 2438.48830   84.80887    0.00119    1.29369    1.00000
 2438.98830   76.29024    0.00119    2.22234    1.00000
 2439.48830   86.06690    0.00109    2.18329    1.00000
 2439.98830   96.28290    0.00106    1.85480    1.00000
 2440.48830   94.07341    0.00108    2.45223    1.00000
 2440.98830   91.56555    0.00110    3.15137    1.00000
 2441.48830   89.93199    0.00111    4.71656    1.00000
 2441.98830   88.31942    0.00116    6.13138    1.00000
 2442.48830   79.20157    0.00125   19.29444    1.00000
 2442.98830   69.90349    0.00127   40.96218    1.00000
 2443.48830   73.99428    0.00123   16.48411    1.00000
 2443.98830   78.40657    0.00121    1.96940    1.00000
 2444.48830   78.24311    0.00122    1.86104    1.00000
 2444.98830   77.96976    0.00122    1.93201    1.00000
 2445.48830   77.86581    0.00122    1.29652    1.00000
 2445.98830   77.76593    0.00120    0.80524    1.00000
 2446.48830   81.95749    0.00116    1.48306    1.00000
 2446.98830   86.25211    0.00114    2.41691    1.00000
 2447.48830   87.30293    0.00113    1.71396    1.00000
 2447.98830   88.27586    0.00113    1.06227    1.00000
 2448.48830   86.24962    0.00115    0.62095    1.00000
 2448.98830   84.15136    0.00121    0.28373    1.00000
 2449.48830   74.52934    0.00132    4.11691    1.00000
 2449.98830   64.72664    0.00132   13.05315    1.00000
 2450.48830   74.44893    0.00121   12.34183    1.00000
 2450.98830   84.64007    0.00117    9.67139    1.00000
 2451.48830   81.29646    0.00120    6.87077    1.00000
 2451.98830   77.62785    0.00122    4.81517    1.00000
 2452.48830   77.69112    0.00122    2.52949    1.00000
 2452.98830   77.84399    0.00124    0.93216    1.00000
 2453.48830   74.31643    0.00127    2.45517    1.00000
 2453.98830   70.70049    0.00128    4.89923    1.00000
 2454.48830   72.97684    0.00125    3.29701    1.00000
 2454.98830   75.39469    0.00123    1.88126    1.00000
 2455.48830   77.03100    0.00122    2.12214    1.00000
 2455.98830   78.64854    0.00126    2.21230    1.00000
 2456.48830   72.66843    0.00134    8.51661    1.00000
 2456.98830   66.50589    0.00136   19.56225    1.00000
 2457.48830   68.72912    0.00131   11.38173    1.00000
 2457.98830   71.15372    0.00125    4.68553    1.00000
 2458.48830   77.91706    0.00119    4.23774    1.00000
 2458.98830   84.78460    0.00117    3.53907    1.00000
 2459.48830   81.39117    0.00120    4.65361    1.00000
 2459.98830   77.75135    0.00116    6.76946    1.00000
 2460.48830   70.69744    0.00104   16.65703    1.00000
 2460.98830   63.56155    0.00101   29.29183    1.00000
 2461.48830   64.55729    0.00108   23.96784    1.00000
 2461.98830   65.74828    0.00115   19.29035    1.00000
 2462.48830   69.32722    0.00122   34.22679    1.00000
 2462.98830   72.96349    0.00123   57.80475    1.00000
 2463.48830   79.80398    0.00117   20.07325    1.00000
 2463.98830   86.72141    0.00116    0.60707    1.00000
 2464.48830   81.63724    0.00121    2.36862    1.00000
 2464.98830   76.26487    0.00124    5.59868    1.00000
 2465.48830   74.48488    0.00126    3.60727    1.00000
 2465.98830   72.79115    0.00126    2.07071    1.00000
 2466.48830   75.16241    0.00123    5.58484    1.00000
 2466.98830   77.63129    0.00121   11.19857    1.00000
 2467.48830   79.11053    0.00120    9.11122    1.00000
 2467.98830   80.56599    0.00117    7.28615    1.00000
